[{"id":"1","name":"兄弟机械商业（上海）有限公司","address":"天山西路799号5楼01单元","location":"121.353869,31.218027","township":"新泾镇"},{"id":"2","name":"开店宝支付服务有限公司","address":"上海市长宁区伊犁路152号2幢201－203室","location":"121.408410,31.202320","township":"虹桥街道"},{"id":"3","name":"中颖电子股份有限公司","address":"金钟路767弄3号楼","location":"121.356192,31.219523","township":"新泾镇"},{"id":"4","name":"明基智能科技（上海）有限公司","address":"淞虹路207号D栋8楼E单元","location":"121.359955,31.223040","township":"新泾镇"},{"id":"5","name":"浩德科技股份有限公司","address":"延安西路726号1B","location":"121.433512,31.215492","township":"江苏路街道"},{"id":"6","name":"上海南洋万邦软件技术有限公司","address":"上海市长宁区天山西路120号1316室","location":"121.373600,31.217041","township":"北新泾街道"},{"id":"7","name":"上海软中信息技术有限公司","address":"上海市长宁区仙霞路350号3号楼4306室","location":"121.396973,31.205210","township":"仙霞新村街道"},{"id":"8","name":"上海红星美凯龙悦家互联网科技有限公司","address":"上海市长宁区广顺路33号8幢1层1485室","location":"121.353379,31.216650","township":"新泾镇"},{"id":"9","name":"博世（上海）智能科技有限公司","address":"福泉北路333号1幢8层888室","location":"121.354600,31.230019","township":"新泾镇"},{"id":"10","name":"哦加哦网络科技（上海）有限公司","address":"上海市长宁区长宁路999号6楼6159室","location":"121.417880,31.217650","township":"华阳路街道"},{"id":"11","name":"上海分尚网络科技有限公司","address":"上海市长宁区仙霞路350号3幢5107室","location":"121.396973,31.205210","township":"仙霞新村街道"},{"id":"12","name":"上海华虹计通智能系统股份有限公司","address":"上海市长宁区中山西路1291号","location":"121.420450,31.190972","township":"田林街道"},{"id":"13","name":"上海有色网信息科技股份有限公司","address":"上海市长宁区广顺路33号3幢301室","location":"121.353380,31.216650","township":"新泾镇"},{"id":"14","name":"上海云思智慧信息技术有限公司","address":"上海市长宁区仙霞路579弄38号第二幢101室","location":"121.389030,31.208265","township":"仙霞新村街道"},{"id":"15","name":"上海新微科技集团有限公司","address":"长宁路865号5号楼10楼","location":"121.420507,31.216602","township":"华阳路街道"},{"id":"16","name":"远景能源（江苏）有限公司上海分公司","address":"上海市长宁区中山西路1065号SOHO中山广场B座8楼","location":"121.415506,31.197892","township":"虹桥街道"},{"id":"17","name":"景泰新能源（上海）有限公司","address":"天山路1717号T2-1503","location":"121.408914,31.209945","township":"天山路街道"},{"id":"18","name":"幻想动力（上海）文化传播有限公司","address":"上海市长宁区广顺路33号8幢1层1446室","location":"121.353379,31.216650","township":"新泾镇"},{"id":"19","name":"上海百芝龙网络科技有限公司","address":"上海市长宁区延安西路1326号生物大厦4楼","location":"121.425777,31.209653","township":"新华路街道"},{"id":"20","name":"上海溢德行工业科技有限公司","address":"协和路787号A座南楼3楼","location":"121.353373,31.216724","township":"新泾镇"},{"id":"21","name":"芯颖科技有限公司","address":"金钟路767弄3号楼1楼","location":"121.356192,31.219523","township":"新泾镇"},{"id":"22","name":"上海谋乐网络科技有限公司","address":"新华路365弄6号7号楼305室","location":"121.425578,31.203330","township":"新华路街道"},{"id":"23","name":"上海熙达食品有限公司","address":"中山西路179号3楼302一309室","location":"121.411153,31.219615","township":"周家桥街道"},{"id":"24","name":"东旺信息科技（上海）有限公司","address":"金钟路658弄18号204室","location":"121.358273,31.222762","township":"新泾镇"},{"id":"25","name":"上海新大陆翼码信息科技股份有限公司","address":"上海市长宁区宣化路3号2253室","location":"121.430822,31.217710","township":"江苏路街道"},{"id":"26","name":"上海古北电子技术工程有限公司","address":"天山路641号3号207","location":"121.394543,31.212031","township":"仙霞新村街道"},{"id":"27","name":"上海东峻信息科技有限公司","address":"长宁路855号9楼B室","location":"121.420211,31.218531","township":"华阳路街道"},{"id":"28","name":"上海德必创新科技发展有限公司","address":"安化路492号2幢1楼101-2室","location":"121.420173,31.215348","township":"华阳路街道"},{"id":"29","name":"上海霖罕信息科技有限公司","address":"上海市长宁区镇宁路465弄161号3号楼249室","location":"121.432901,31.222073","township":"江苏路街道"},{"id":"30","name":"上海元素之光照明科技有限公司","address":"上海市长宁区广顺路33号8幢209室","location":"121.353379,31.216650","township":"新泾镇"},{"id":"31","name":"上海氪信信息技术有限公司","address":"上海市长宁区安化路492号A座（1幢）126室A004","location":"121.420342,31.215258","township":"华阳路街道"},{"id":"32","name":"上海宽惠网络科技股份有限公司","address":"协和路1033号B幢904室","location":"121.353609,31.223120","township":"新泾镇"},{"id":"33","name":"上海跃橙文化传播有限公司","address":"上海市长宁区仙霞路350号3幢5楼511室","location":"121.396973,31.205210","township":"仙霞新村街道"},{"id":"34","name":"上海依智医疗技术有限公司","address":"上海市长宁区娄山关路523号23楼06，07单元","location":"121.402962,31.208698","township":"天山路街道"},{"id":"35","name":"上海捷租网络科技有限公司","address":"上海市长宁区协和路1158号811-66室","location":"121.354498,31.224229","township":"新泾镇"},{"id":"36","name":"上海岭先机器人科技股份有限公司","address":"天山路641号2号221","location":"121.394593,31.212910","township":"仙霞新村街道"},{"id":"37","name":"上海睿流智能科技有限公司","address":"上海市长宁区长宁路999号6楼6166室","location":"121.417880,31.217650","township":"华阳路街道"},{"id":"38","name":"上海谦尊升网络科技有限公司","address":"金钟路968号3号楼1105室","location":"121.353166,31.222230","township":"新泾镇"},{"id":"39","name":"虎特信息科技（上海）有限公司","address":"天山路600弄3号7D","location":"121.396320,31.213725","township":"天山路街道"},{"id":"40","name":"豆朋教育科技（上海）有限公司","address":"上海市长宁区仙霞路350号10幢1083室","location":"121.397726,31.205310","township":"仙霞新村街道"},{"id":"41","name":"上海华合电力科技有限公司","address":"上海市长宁区长宁路999号6108室","location":"121.417880,31.217650","township":"华阳路街道"},{"id":"42","name":"上海宏时数据系统有限公司","address":"上海市长宁区定西路988号1502室","location":"121.423905,31.210375","township":"华阳路街道"},{"id":"43","name":"上海岂安信息科技有限公司","address":"上海市长宁区华山路1336号10楼D座","location":"121.432457,31.208737","township":"新华路街道"},{"id":"44","name":"实视信息技术（上海）有限公司","address":"新华路664号203室","location":"121.420748,31.205235","township":"新华路街道"},{"id":"45","name":"福物（上海）机器人科技有限公司","address":"天山路641号3号楼402室","location":"121.394543,31.212031","township":"仙霞新村街道"},{"id":"46","name":"上海爱问网络科技有限公司","address":"金钟路658弄1号楼B座504室","location":"121.359679,31.220751","township":"新泾镇"},{"id":"47","name":"上海优浪信息科技有限公司","address":"协和路787号H楼4楼","location":"121.353373,31.216724","township":"新泾镇"},{"id":"48","name":"上海简维软件科技有限公司","address":"上海市长宁区长宁路999号6楼6140室","location":"121.417880,31.217650","township":"华阳路街道"},{"id":"49","name":"上海经达信息科技股份有限公司","address":"上海市长宁区仙霞路350号10幢265室","location":"121.397726,31.205310","township":"仙霞新村街道"},{"id":"50","name":"上海优望信息科技有限公司","address":"仙霞路350号科创楼401室","location":"121.396259,31.205489","township":"仙霞新村街道"},{"id":"51","name":"卢博机器人（上海）有限公司","address":"通协路268号B301","location":"121.355896,31.226505","township":"新泾镇"},{"id":"52","name":"上海无学网络科技有限公司","address":"上海市长宁区长宁路999号6楼6169室","location":"121.417880,31.217650","township":"华阳路街道"},{"id":"53","name":"如东信息技术服务（上海）有限公司","address":"通协路268号B506","location":"121.355896,31.226505","township":"新泾镇"},{"id":"54","name":"上海小蓦智能科技有限公司","address":"天山路1717号T2—707","location":"121.408914,31.209945","township":"天山路街道"},{"id":"55","name":"上海云卯信息科技有限公司","address":"长宁路1033号907室","location":"121.417084,31.217647","township":"华阳路街道"},{"id":"56","name":"上海远眸软件有限公司","address":"上海市长宁区宣化路3号二层2883室","location":"121.430822,31.217710","township":"江苏路街道"},{"id":"57","name":"翼健（上海）信息科技有限公司","address":"长宁路1193号T31805-06","location":"121.413764,31.217412","township":"周家桥街道"},{"id":"58","name":"上海铀尼信息科技有限公司","address":"上海市长宁区仙霞路350号3幢4903室","location":"121.396973,31.205210","township":"仙霞新村街道"},{"id":"59","name":"上海腾梭科技有限公司","address":"上海市长宁区淞虹路207号","location":"121.360357,31.221806","township":"新泾镇"},{"id":"60","name":"上海允登信息科技有限公司","address":"长宁路1033号901室","location":"121.417084,31.217647","township":"华阳路街道"},{"id":"61","name":"上海熙香艺享电子商务有限公司","address":"中山西路179号302-309室","location":"121.411153,31.219615","township":"周家桥街道"},{"id":"62","name":"上海富基信息科技有限公司","address":"长宁路855号10楼C座","location":"121.420211,31.218531","township":"华阳路街道"},{"id":"63","name":"上海伟道物联网有限公司","address":"上海市长宁区哈密路1955号","location":"121.368670,31.194549","township":"程家桥街道"},{"id":"64","name":"上海新物科技有限公司","address":"长宁路855号10B","location":"121.420211,31.218531","township":"华阳路街道"},{"id":"65","name":"上海骧远信息科技有限公司","address":"上海市长宁区万航渡路2453号6幢1层102室","location":"121.406419,31.220200","township":"周家桥街道"},{"id":"66","name":"上海传音信息科技有限公司","address":"长宁路1158号2-4楼","location":"121.414614,31.218177","township":"周家桥街道"},{"id":"67","name":"上海方库信息科技有限公司","address":"茅台路868号905、907、909室","location":"121.383346,31.211370","township":"新泾镇"},{"id":"68","name":"绿地深兰机器人科技有限公司","address":"威宁路369号滨谷大厦8层806室","location":"121.384909,31.213993","township":"新泾镇"},{"id":"69","name":"上海巽骑骥网络科技有限公司","address":"上海市长宁区天山路600弄4号13B座34室","location":"121.396945,31.214016","township":"天山路街道"},{"id":"70","name":"北盾（上海）智能科技有限公司","address":"上海市长宁区仙霞路1225弄106号301室-33","location":"121.375843,31.210304","township":"新泾镇"},{"id":"71","name":"上海十圆网络科技有限公司","address":"上海市长宁区临虹路128弄5号楼401","location":"121.353356,31.231915","township":"新泾镇"},{"id":"72","name":"上海霸奋信息科技有限公司","address":"天山路1718号7号102室","location":"121.445966,31.222750","township":"静安寺街道"},{"id":"73","name":"上海烨睿信息科技有限公司","address":"愚园路753号E栋802室","location":"121.434338,31.219496","township":"江苏路街道"},{"id":"74","name":"云迹创意设计（上海）有限公司","address":"临虹路128弄5号203室","location":"121.353356,31.231915","township":"新泾镇"},{"id":"75","name":"上海时元互联网科技有限公司","address":"上海市长宁区广顺路33号8幢284室","location":"121.353379,31.216650","township":"新泾镇"},{"id":"76","name":"上海乐云网络科技有限公司","address":"上海市长宁区仙霞路350号10幢东303室","location":"121.397726,31.205310","township":"仙霞新村街道"},{"id":"77","name":"效生软件科技（上海）有限公司","address":"威宁路369号缤谷大厦505室","location":"121.384909,31.213993","township":"新泾镇"},{"id":"78","name":"绿地深兰建筑科技有限公司","address":"威宁路369号滨谷大厦8层805室","location":"121.384909,31.213993","township":"新泾镇"},{"id":"79","name":"沐遥科技（上海）有限公司","address":"上海市长宁区威宁路470号1113室","location":"121.386007,31.216621","township":"周家桥街道"},{"id":"80","name":"铿腾（上海）科技有限公司","address":"金钟路658弄12号楼307室","location":"121.358619,31.221595","township":"新泾镇"},{"id":"81","name":"上海拿努网络科技有限公司","address":"上海市长宁区协和路1158号811-149室","location":"121.354498,31.224229","township":"新泾镇"},{"id":"82","name":"上海飞叶机器人科技有限公司","address":"上海市长宁区长宁路999号6楼6247室","location":"121.417880,31.217650","township":"华阳路街道"},{"id":"83","name":"叫店（上海）科技有限公司","address":"上海市长宁区威宁路369号1101单元（实际楼层十层）","location":"121.384909,31.213993","township":"新泾镇"},{"id":"84","name":"益倍嘉机器人（上海）有限公司","address":"延安西路1612号","location":"121.419243,31.208285","township":"新华路街道"},{"id":"85","name":"上海博者软件系统有限公司","address":"定西路1308号3楼","location":"121.422918,31.215643","township":"华阳路街道"},{"id":"86","name":"科大讯飞（上海）科技有限公司","address":"上海市长宁区广顺路33号8栋一层","location":"121.353379,31.216650","township":"新泾镇"},{"id":"87","name":"上海讯飞瑞元信息技术有限公司","address":"上海市长宁区广顺路33号8栋一层","location":"121.353379,31.216650","township":"新泾镇"},{"id":"88","name":"上海眼神信息服务有限公司","address":"长宁路1033号903室","location":"121.417084,31.217647","township":"华阳路街道"},{"id":"89","name":"联通（上海）产业互联网有限公司","address":"长宁路1033号19楼","location":"121.417084,31.217647","township":"华阳路街道"},{"id":"90","name":"北讯云联信息科技有限公司","address":"临虹路168弄","location":"121.351133,31.231524","township":"新泾镇"},{"id":"91","name":"永旺永乐深兰（上海）科技有限公司","address":"上海市长宁区长宁路999号6楼6222室","location":"121.417880,31.217650","township":"华阳路街道"},{"id":"92","name":"上海虎烨信息科技有限公司","address":"愚园路753号E-8室","location":"121.434412,31.220259","township":"江苏路街道"},{"id":"93","name":"新译人工智能科技（上海）有限公司","address":"上海市长宁区娄山关路55号2幢1206室","location":"121.402426,31.202735","township":"虹桥街道"},{"id":"94","name":"软银信息技术（上海）有限公司","address":"延安西路2201号1915室","location":"121.404610,31.202165","township":"虹桥街道"},{"id":"95","name":"上海朔茂信息科技有限公司","address":"上海市长宁区天山路600弄4号13B座22室","location":"121.396945,31.214016","township":"天山路街道"},{"id":"96","name":"上海爱圆信息技术有限公司","address":"上海市长宁区仙霞路350号10栋1楼东座","location":"121.397726,31.205310","township":"仙霞新村街道"},{"id":"97","name":"上海惠术医疗科技发展有限公司","address":"上海市长宁区仙霞路350号1幢楼1楼262室","location":"121.396876,31.205738","township":"仙霞新村街道"},{"id":"98","name":"上海维谛信息科技有限公司","address":"长宁路1033号905室","location":"121.417084,31.217647","township":"华阳路街道"},{"id":"99","name":"上海达慧智能科技有限公司","address":"长宁路1033号910室","location":"121.417084,31.217647","township":"华阳路街道"},{"id":"100","name":"化身科技（上海）有限公司","address":"长宁路1033号8006室","location":"121.417084,31.217647","township":"华阳路街道"},{"id":"101","name":"昆岸（上海）信息技术有限公司","address":"长宁路855号13楼B座","location":"121.420211,31.218531","township":"华阳路街道"},{"id":"102","name":"深兰自动车科技（上海）有限公司","address":"上海市长宁区威宁路369号1102单元（实际楼层十层）","location":"121.384909,31.213993","township":"新泾镇"},{"id":"103","name":"深兰机器人（上海）有限公司","address":"上海市长宁区长宁999号6227室","location":"121.424624,31.220367","township":"江苏路街道"},{"id":"104","name":"科大讯飞—上海讯飞瑞元信息技术有限公司","address":"上海市长宁区广顺路33号8栋一层","location":"121.353379,31.216650","township":"新泾镇"},{"id":"105","name":"上海氦豚机器人科技有限公司","address":"上海市长宁区武夷路351号4幢103室","location":"121.423435,31.213700","township":"华阳路街道"},{"id":"106","name":"上海合桃树信息技术有限公司","address":"上海市长宁区长宁路999号6楼6206室","location":"121.417880,31.217650","township":"华阳路街道"},{"id":"107","name":"上海达慧智能信息有限公司","address":"长宁路1033号910室","location":"121.417084,31.217647","township":"华阳路街道"},{"id":"108","name":"上海掌福网络科技有限公司","address":"上海市长宁区长宁路1033号8015室","location":"121.417021,31.218022","township":"华阳路街道"},{"id":"109","name":"上海图智安网络科技有限公司","address":"上海市长宁区娄山关路523号","location":"121.402962,31.208698","township":"天山路街道"},{"id":"110","name":"上海遐迩智能科技有限公司","address":"长宁路1033号902室","location":"121.417084,31.217647","township":"华阳路街道"},{"id":"111","name":"上海域乎信息技术有限公司","address":"长宁路1033号909室","location":"121.417084,31.217647","township":"华阳路街道"},{"id":"112","name":"云信达（上海）软件技术有限公司","address":"长宁路1033号904室","location":"121.417084,31.217647","township":"华阳路街道"},{"id":"113","name":"上海融念科技有限公司","address":"长宁路1033号906室","location":"121.417084,31.217647","township":"华阳路街道"},{"id":"114","name":"上海西井信息科技有限公司","address":"利西路102号2楼4楼","location":"121.430205,31.214929","township":"江苏路街道"},{"id":"115","name":"上海慧模智能科技有限公司","address":"协和路787号A南4楼","location":"121.355454,31.217036","township":"新泾镇"},{"id":"116","name":"深兰科技（上海）有限公司","address":"威宁路369-377号","location":"121.384909,31.213993","township":"新泾镇"},{"id":"117","name":"上海深屹网络科技有限公司","address":"长宁路855号20楼A室","location":"121.420211,31.218531","township":"华阳路街道"},{"id":"118","name":"上海艺赛旗软件股份有限公司","address":"上海市长宁区广顺路33号8幢1层1706室","location":"121.353379,31.216650","township":"新泾镇"},{"id":"119","name":"神州通誉软件（上海）股份有限公司","address":"福泉路111号","location":"121.357873,31.217145","township":"新泾镇"},{"id":"120","name":"千城智联（上海）网络科技有限公司","address":"仙霞路350号科创楼1018室","location":"121.396259,31.205489","township":"仙霞新村街道"},{"id":"121","name":"上海车音智能科技有限公司","address":"金钟路999号1幢9楼904-906室","location":"121.351875,31.220250","township":"新泾镇"},{"id":"122","name":"上海置信节能环保有限公司","address":"天山西路588号-590号2幢1楼东区","location":"121.359432,31.218717","township":"新泾镇"},{"id":"123","name":"互诚信息技术（上海）有限公司","address":"蒲松北路60号","location":"121.374897,31.218535","township":"北新泾街道"},{"id":"124","name":"上海音智达信息技术有限公司","address":"安西路100号1楼A座","location":"121.425311,31.219261","township":"江苏路街道"},{"id":"125","name":"上海视云网络科技有限公司","address":"仙霞路350号科创楼323室","location":"121.396259,31.205489","township":"仙霞新村街道"},{"id":"126","name":"携程旅游网络技术（上海）有限公司","address":"金钟路968号12号楼801室","location":"121.351781,31.222302","township":"新泾镇"},{"id":"127","name":"上海合胜计算机科技股份有限公司","address":"协和路787号A楼北四楼","location":"121.355590,31.217290","township":"新泾镇"},{"id":"128","name":"上海南天电脑系统有限公司","address":"金钟路767弄1号","location":"121.356893,31.220222","township":"新泾镇"},{"id":"129","name":"希姆通信息技术（上海）有限公司","address":"金钟路633号a幢四楼","location":"121.359890,31.220051","township":"新泾镇"},{"id":"130","name":"上海久茂国际物流有限公司","address":"仙霞路322号2104-2107室","location":"121.398981,31.205529","township":"仙霞新村街道"},{"id":"131","name":"上海长城电子信息网络有限公司","address":"天山路641号1号楼592室","location":"121.394813,31.212740","township":"仙霞新村街道"},{"id":"132","name":"上海泓智信息科技有限公司","address":"天山路8号402室","location":"121.377752,31.216406","township":"北新泾街道"},{"id":"133","name":"上海飞来飞去新媒体展示设计有限公司","address":"长宁路865号8号楼1127室","location":"121.420337,31.216456","township":"华阳路街道"},{"id":"134","name":"上海新晨信息集成系统有限公司","address":"天山路641号3号楼306A","location":"121.394543,31.212031","township":"仙霞新村街道"},{"id":"135","name":"上海领意信息系统集成股份有限公司","address":"延安西路1600边门208室","location":"121.419790,31.207997","township":"新华路街道"},{"id":"136","name":"上海农易信息技术有限公司","address":"通协路269号7号楼802室","location":"121.354910,31.225983","township":"新泾镇"},{"id":"137","name":"上海安捷力信息系统有限公司","address":"协和路787号D南4楼","location":"121.355454,31.217036","township":"新泾镇"},{"id":"138","name":"携程计算机技术（上海）有限公司","address":"金钟路968号12号楼606室","location":"121.351781,31.222302","township":"新泾镇"},{"id":"139","name":"上海寻梦信息技术有限公司","address":"娄山关路533号北楼2902至北楼2913","location":"121.403059,31.209057","township":"天山路街道"},{"id":"140","name":"携程旅游信息技术（上海）有限公司","address":"金钟路968号16号楼","location":"121.351128,31.221367","township":"新泾镇"},{"id":"141","name":"汉海信息技术（上海）有限公司","address":"蒲松北路60号B座","location":"121.374897,31.218535","township":"北新泾街道"},{"id":"142","name":"用友汽车信息科技（上海）股份有限公司","address":"定西路1100号11楼","location":"121.423511,31.211777","township":"华阳路街道"},{"id":"143","name":"新思科技（上海）有限公司","address":"长宁路1027号13-18楼","location":"121.417969,31.217832","township":"华阳路街道"},{"id":"144","name":"上海今日在线科技发展有限公司","address":"天山西路568号B403-407","location":"121.360497,31.218946","township":"新泾镇"},{"id":"145","name":"上海汉涛信息咨询有限公司","address":"定西路492号1幢413室","location":"121.423556,31.210046","township":"华阳路街道"},{"id":"146","name":"上海威士顿信息技术有限公司","address":"淮海西路666号1602室","location":"121.422547,31.197184","township":"新华路街道"},{"id":"147","name":"上海常青藤信息技术有限公司","address":"虹桥路2451号","location":"121.358864,31.188411","township":"程家桥街道"},{"id":"148","name":"优集计算机信息技术（上海）有限公司","address":"天山路8号兆益科技园9楼","location":"121.378322,31.216560","township":"北新泾街道"},{"id":"149","name":"上海云多科技股份有限公司","address":"长宁路546号1号楼1206室","location":"121.428022,31.226696","township":"曹家渡街道"},{"id":"150","name":"智汇科技（中国）有限公司","address":"仙霞路350号科创楼820—829室","location":"121.396259,31.205489","township":"仙霞新村街道"},{"id":"151","name":"上海巨一科技发展有限公司","address":"伊犁路152号2幢3楼","location":"121.408410,31.202320","township":"虹桥街道"},{"id":"152","name":"泰为信息科技（上海）有限公司","address":"娄山关路523号南楼3001","location":"121.402960,31.208618","township":"天山路街道"},{"id":"153","name":"上海路团科技有限公司","address":"长宁路546号1106A","location":"121.424701,31.222045","township":"华阳路街道"},{"id":"154","name":"数码通信息产业（集团）有限公司","address":"茅台路1068号228","location":"121.378290,31.211213","township":"新泾镇"},{"id":"155","name":"上海美华系统有限公司","address":"仙霞路350号2幢4楼","location":"121.395571,31.203929","township":"仙霞新村街道"},{"id":"156","name":"上海数码通系统集成有限公司","address":"天山路600弄4号19楼C、D座","location":"121.396945,31.214016","township":"天山路街道"},{"id":"157","name":"唯智信息技术（上海）股份有限公司","address":"天山路600弄3号23A－D","location":"121.396753,31.214003","township":"天山路街道"},{"id":"158","name":"神州数码通用软件（上海）有限公司","address":"上海市长宁区福泉路111号2楼","location":"121.357569,31.217635","township":"新泾镇"},{"id":"159","name":"上海奕尚网络信息有限公司","address":"金钟路658弄6号楼3楼","location":"121.359020,31.222390","township":"新泾镇"},{"id":"160","name":"上海玖道信息科技股份有限公司","address":"定西路1100号10楼","location":"121.423511,31.211777","township":"华阳路街道"},{"id":"161","name":"腾燊嘉诚（上海）信息科技股份有限公司","address":"延安西路1566号9B2","location":"121.420766,31.208522","township":"新华路街道"},{"id":"162","name":"聚物腾云物联网（上海）有限公司","address":"淞虹路207号a栋三楼d单元","location":"121.360428,31.220713","township":"新泾镇"},{"id":"163","name":"科纬迅软件服务（上海）有限公司","address":"上海市静安区恒通路268号23层","location":"121.457973,31.241298","township":"天目西路街道"},{"id":"164","name":"上海微企信息技术股份有限公司","address":"延安西路1146号3号楼4楼","location":"121.430325,31.209927","township":"新华路街道"},{"id":"165","name":"上海新球通信有限公司","address":"芙蓉江路276弄2号310室","location":"121.394717,31.211663","township":"仙霞新村街道"},{"id":"166","name":"上海旅家网络信息技术有限公司","address":"延安西路728号17楼a座","location":"121.433770,31.215150","township":"江苏路街道"},{"id":"167","name":"互程（上海）网络技术有限公司","address":"金钟路968号16号楼","location":"121.351128,31.221367","township":"新泾镇"},{"id":"168","name":"驿程（上海）数据处理有限公司","address":"金钟路968号12号楼706室","location":"121.351781,31.222302","township":"新泾镇"},{"id":"169","name":"才望子信息技术（上海）有限公司","address":"延安西路726","location":"121.433512,31.215492","township":"江苏路街道"},{"id":"170","name":"上海达策信息技术有限公司","address":"新华路664号313室","location":"121.420748,31.205235","township":"新华路街道"},{"id":"171","name":"上海图辰信息技术有限公司","address":"上海市长宁区中山西路1245弄2-3号科美商务中心3A","location":"121.418631,31.194371","township":"虹桥街道"},{"id":"172","name":"上海农业信息有限公司","address":"通协路269号7号楼802室","location":"121.354910,31.225983","township":"新泾镇"},{"id":"173","name":"上海合胜信息服务有限公司","address":"协和路787号A楼北楼四楼","location":"121.354594,31.216908","township":"新泾镇"},{"id":"174","name":"上海凭安征信服务有限公司","address":"通协路268号A808/A809","location":"121.355896,31.226505","township":"新泾镇"},{"id":"175","name":"飞兆半导体技术（上海）有限公司","address":"凯旋路369号701室","location":"121.416161,31.216062","township":"周家桥街道"},{"id":"176","name":"通腾导航科技（中国）有限公司","address":"遵义路100号B栋1811－1815室","location":"121.407014,31.206735","township":"天山路街道"},{"id":"177","name":"上海岱嘉医学信息系统有限公司","address":"天山西路1068号A栋5楼B座","location":"121.354330,31.220256","township":"新泾镇"},{"id":"178","name":"上海拜联信息技术服务有限公司","address":"昭化路357号D幢101","location":"121.423869,31.212523","township":"华阳路街道"},{"id":"179","name":"上海驰骋信息科技有限公司","address":"定西路1016号501室","location":"121.423835,31.210906","township":"华阳路街道"},{"id":"180","name":"晨讯科技（上海）有限公司","address":"金钟路633号a幢23567层","location":"121.359890,31.220051","township":"新泾镇"},{"id":"181","name":"上海美镐信息技术有限公司","address":"延安西路728号","location":"121.433770,31.215150","township":"江苏路街道"},{"id":"182","name":"上海林克信息系统工程有限公司","address":"天山路600弄3号19CD","location":"121.396753,31.214003","township":"天山路街道"},{"id":"183","name":"日立物流软件系统（上海）有限公司","address":"凯旋路369号2205室","location":"121.416161,31.216062","township":"周家桥街道"},{"id":"184","name":"上海长润信息技术有限公司","address":"长宁路855号11楼ABC","location":"121.420211,31.218531","township":"华阳路街道"},{"id":"185","name":"佳报（上海）信息技术有限公司","address":"天山路601号1301～1304","location":"121.393849,31.212954","township":"仙霞新村街道"},{"id":"186","name":"上海科太计算机系统集成有限公司","address":"定西路1277号308室","location":"121.421614,31.215500","township":"华阳路街道"},{"id":"187","name":"上海博克奔迈计算机系统有限公司","address":"番禺路390号1502室","location":"121.430058,31.203801","township":"新华路街道"},{"id":"188","name":"上海领跃信息技术有限公司","address":"上海市长宁区虹桥路996弄161号圣骊虹桥创意园2幢5层","location":"121.420586,31.193691","township":"虹桥街道"},{"id":"189","name":"上海智强信息服务有限公司","address":"天山路641号2号502","location":"121.394593,31.212910","township":"仙霞新村街道"},{"id":"190","name":"上海智汇科技有限公司","address":"仙霞路350号科创楼820—829室","location":"121.396259,31.205489","township":"仙霞新村街道"},{"id":"191","name":"越田（上海）信息科技有限公司","address":"仙霞路137号2001室","location":"121.407526,31.203467","township":"虹桥街道"},{"id":"192","name":"上海丸加计算机信息技术有限公司","address":"定西路1277号402A","location":"121.421614,31.215500","township":"华阳路街道"},{"id":"193","name":"艾施托康计算机系统集成（上海）有限公司","address":"天山支路168号715室","location":"121.396332,31.215235","township":"周家桥街道"},{"id":"194","name":"上海通天晓信息技术有限公司","address":"长宁路546号1号楼1202","location":"121.428022,31.226696","township":"曹家渡街道"},{"id":"195","name":"上海工程技术大学科技园发展有限公司","address":"仙霞路350号14幢1118室","location":"121.396672,31.205713","township":"仙霞新村街道"},{"id":"196","name":"博彦信息技术（上海）有限公司","address":"延安西路1088号401室","location":"121.431040,31.211408","township":"新华路街道"},{"id":"197","name":"琥博信息科技（上海）有限公司","address":"仙霞路350号2幢2楼","location":"121.395571,31.203929","township":"仙霞新村街道"},{"id":"198","name":"上海华立通信信息有限公司","address":"江苏路500号","location":"121.431673,31.216677","township":"江苏路街道"},{"id":"199","name":"上海神州数码信息技术服务有限公司","address":"福泉路111号3楼","location":"121.357873,31.217145","township":"新泾镇"},{"id":"200","name":"艾思林柯信息技术（上海）有限公司","address":"上海市张江高科技园区郭守敬路498号1幢201-10室","location":"121.598440,31.210169","township":"张江高科技园区"},{"id":"201","name":"芯唐电子科技（上海）有限公司","address":"延安西路2299号2701室","location":"121.399846,31.201354","township":"虹桥街道"},{"id":"202","name":"守内安信息科技（上海）有限公司","address":"天山路600弄2号10E","location":"121.397348,31.213365","township":"天山路街道"},{"id":"203","name":"上海中科微系统信息科技园有限公司","address":"长宁路855号10楼C座","location":"121.420211,31.218531","township":"华阳路街道"},{"id":"204","name":"上海昊声电子信息技术有限公司","address":"天山路600弄2号25A","location":"121.397348,31.213365","township":"天山路街道"},{"id":"205","name":"上海科联信息系统有限公司","address":"上海市长宁区万航渡路2453号6幢一层101室","location":"121.406419,31.220200","township":"周家桥街道"},{"id":"206","name":"世存信息技术（上海）有限公司","address":"天山西路1068号D栋3楼B单元","location":"121.354396,31.218714","township":"新泾镇"},{"id":"207","name":"上海其加软件有限公司","address":"延安西路1221号2号楼502室","location":"121.427820,31.210850","township":"华阳路街道"},{"id":"208","name":"上海观察者信息技术有限公司","address":"番禺路300弄7号A幢403室","location":"121.428894,31.204537","township":"新华路街道"},{"id":"209","name":"上海木木机器人技术有限公司","address":"上海市长宁区协和路787号虹桥鑫达科研楼4F","location":"121.355454,31.217036","township":"新泾镇"},{"id":"210","name":"上海依图网络科技有限公司","address":"上海市长宁区娄山关路523号南楼23楼","location":"121.402960,31.208618","township":"天山路街道"},{"id":"211","name":"上海大通医药信息技术有限公司","address":"天山西路567号5楼A-2单元","location":"121.356825,31.217938","township":"新泾镇"},{"id":"212","name":"麦康软件科技（上海）有限公司","address":"中山西路1065号2202室","location":"121.415504,31.197891","township":"虹桥街道"},{"id":"213","name":"上海水晶石视觉展示有限公司","address":"凯旋路1058号","location":"121.417667,31.206911","township":"新华路街道"},{"id":"214","name":"汇思软件（上海）有限公司","address":"延安西路1088号2607","location":"121.431040,31.211408","township":"新华路街道"},{"id":"215","name":"上海音宝软件科技有限公司","address":"安西路100号","location":"121.425311,31.219261","township":"江苏路街道"},{"id":"216","name":"小凌鱼金融信息服务（上海）有限公司","address":"临虹路168弄6号楼5楼","location":"121.351699,31.232033","township":"新泾镇"},{"id":"217","name":"上海方正信息安全技术有限公司","address":"定西路1016号301","location":"121.423835,31.210906","township":"华阳路街道"},{"id":"218","name":"好耶信息技术（上海）有限公司","address":"上海市天山西路567号神州智慧天地大楼8A-4室","location":"121.356608,31.217644","township":"新泾镇"},{"id":"219","name":"上海希望信息技术有限公司","address":"上海市天山路600弄4号5J","location":"121.396945,31.214016","township":"天山路街道"},{"id":"220","name":"上海华宇九政科技有限公司","address":"上海市长宁区长宁路999号6270室","location":"121.417880,31.217650","township":"华阳路街道"},{"id":"221","name":"上海雪湖信息科技有限公司","address":"上海市长宁区天山路600弄思创大厦4号楼7楼","location":"121.396652,31.213902","township":"天山路街道"},{"id":"222","name":"上海禾野智能科技有限公司","address":"上海市长宁区长宁路999号6273室","location":"121.417880,31.217650","township":"华阳路街道"},{"id":"223","name":"上海诠视传感技术有限公司","address":"上海市长宁区威宁路470号1137室","location":"121.386007,31.216621","township":"周家桥街道"},{"id":"224","name":"恩态信息技术（上海）有限公司","address":"上海市长宁区长宁路999号6楼6283室","location":"121.417880,31.217650","township":"华阳路街道"}]