[{"name":"安迪造型","addr":"安顺路382号","phone":"32160781--黄国飞","street":"虹桥街道","type":"care","location":"121.408014,31.200763","township":"虹桥街道"},{"name":"季心飞便民理发店","addr":"安顺路360号","phone":"13764546756--季心飞","street":"虹桥街道","type":"care","location":"121.408929,31.200541","township":"虹桥街道"},{"name":"上海罗意诗美容美发有限公司","addr":"安顺路354号1层店铺","phone":"32181202、13601622067--沈娟","street":"虹桥街道","type":"care","location":"121.409622,31.200485","township":"虹桥街道"},{"name":"零点造型","addr":"安顺路304号","phone":"62752498--梅国平","street":"虹桥街道","type":"care","location":"121.411888,31.200051","township":"虹桥街道"},{"name":"幻影专业美发","addr":"虹桥路953弄6号2室","phone":"13917600617--朱继成","street":"虹桥街道","type":"care","location":"121.419616,31.196884","township":"虹桥街道"},{"name":"小夏理发店","addr":"虹桥路953弄64号104室","phone":"15801846224--夏燕珍","street":"虹桥街道","type":"care","location":"121.419036,31.198411","township":"虹桥街道"},{"name":"殷文杰便民理发店","addr":"中山西路1410弄小区内","phone":"13046670948--殷文杰","street":"虹桥街道","type":"care","location":"121.425810,31.183529","township":"田林街道"},{"name":"小刘理发店","addr":"虹梅路3888弄7号103室","phone":"62611030--刘长江","street":"虹桥街道","type":"care","location":"121.384520,31.192945","township":"虹桥街道"},{"name":"上海真情家政服务中心","addr":"长宁路2031号18号楼","phone":"15301667340--店员","street":"仙霞新村街道","type":"shop","location":"121.401271,31.218118","township":"周家桥街道"},{"name":"上海清颖服务社（仙霞店）","addr":"天山四村122号3号楼410","phone":"13120516908--范冬燕","street":"仙霞新村街道","type":"shop","location":"121.402550,31.212596","township":"天山路街道"},{"name":"国豪光学眼镜","addr":"安龙路429号","phone":"62420631--周家兴","street":"仙霞新村街道","type":"shop","location":"121.387190,31.204858","township":"仙霞新村街道"},{"name":"卿维美容美发店","addr":"虹古路377弄22号","phone":"62620198--陈陈","street":"仙霞新村街道","type":"care","location":"121.388961,31.202518","township":"仙霞新村街道"},{"name":"经为摄影工作室","addr":"水城路382弄14号","phone":"62339946--徐经为","street":"仙霞新村街道","type":"shop","location":"121.392599,31.206398","township":"仙霞新村街道"},{"name":"上海章爱萍劳务公司","addr":"虹古路417弄9号","phone":"32141167--店员","street":"仙霞新村街道","type":"shop","location":"121.386038,31.203516","township":"仙霞新村街道"},{"name":"帮帮家政服务公司","addr":"水城路361号102室","phone":"62620749、18221392808--店员","street":"仙霞新村街道","type":"shop","location":"121.391850,31.213385","township":"仙霞新村街道"},{"name":"上海泰阳绿色干洗连锁","addr":"虹古路333号","phone":"62420743--店员","street":"仙霞新村街道","type":"shop","location":"121.390935,31.203642","township":"仙霞新村街道"},{"name":"陈永兴（便民服务队）","addr":"仙霞新村街道各社区内流动服务","phone":"13661754986--陈永兴","street":"仙霞新村街道","type":"shop","location":"121.394701,31.203999","township":"仙霞新村街道"},{"name":"哈罗修鞋吧","addr":"虹古路371弄","phone":"13818935448--店员","street":"仙霞新村街道","type":"shop","location":"121.389568,31.203836","township":"仙霞新村街道"},{"name":"王小毛开锁","addr":"水城路380号旁","phone":"13601843699--王小毛","street":"仙霞新村街道","type":"shop","location":"121.391000,31.206830","township":"仙霞新村街道"},{"name":"上海震都中央空调清洁技术有限公司","addr":"金沙江路1340弄15号B幢202室","phone":"52657368*616--朱维卿","street":"仙霞新村街道","type":"shop","location":"121.386115,31.232497","township":"长征镇"},{"name":"上海讯展电脑","addr":"虹古路333号7号店铺","phone":"62622229--店员","street":"仙霞新村街道","type":"shop","location":"121.390935,31.203642","township":"仙霞新村街道"},{"name":"古宋家电维修","addr":"新渔东路422号","phone":"13501650233--王宁","street":"仙霞新村街道","type":"shop","location":"121.385603,31.212429","township":"新泾镇"},{"name":"仙逸家电维修","addr":"茅台路455弄6号","phone":"13916808942--徐绍庆","street":"仙霞新村街道","type":"shop","location":"121.393008,31.209148","township":"仙霞新村街道"},{"name":"诚信车行","addr":"茅台路325号","phone":"13816771420--店员","street":"仙霞新村街道","type":"shop","location":"121.396880,31.209678","township":"仙霞新村街道"},{"name":"常帮振铃车行","addr":"虹古路373号","phone":"62422523--店员","street":"仙霞新村街道","type":"shop","location":"121.389331,31.203656","township":"仙霞新村街道"},{"name":"陈刚（扦脚）","addr":"闸北区岭南路700弄10号603室","phone":"52061155--陈刚","street":"周家桥街道","type":"shop","location":"121.457479,31.317573","township":"临汾路街道"},{"name":"祥和面馆","addr":"武夷路656号","phone":"52669308--孙祥英","street":"周家桥街道","type":"foods","location":"121.417306,31.212704","township":"周家桥街道"},{"name":"松明屋","addr":"泉口路180弄37号101室","phone":"15000243022--潘先生","street":"新泾镇","type":"shop","location":"121.364817,31.214443","township":"新泾镇"},{"name":"新泾家教","addr":"泉口路185弄30号","phone":"18301897485--刘先生","street":"新泾镇","type":"shop","location":"121.367447,31.212383","township":"新泾镇"},{"name":"上海香宝楼殡葬礼仪服务所","addr":"剑河路417号","phone":"1391663910--金先生","street":"新泾镇","type":"shop","location":"121.367614,31.214347","township":"新泾镇"},{"name":"沈为标修表店","addr":"仙霞西路299号虹康美天菜场旁","phone":"13166049131--沈先生","street":"新泾镇","type":"shop","location":"121.365877,31.208336","township":"新泾镇"},{"name":"老丁修脚店","addr":"福泉路194号","phone":"13661783493--丁先生","street":"新泾镇","type":"shop","location":"121.358933,31.213003","township":"新泾镇"},{"name":"刘四裁缝","addr":"泉口路185弄门口","phone":"12918761032--王小姐","street":"新泾镇","type":"shop","location":"121.365864,31.213414","township":"新泾镇"},{"name":"上海双翼花卉园艺有限公司","addr":"仙霞路1235号","phone":"13901811064--阎先生","street":"新泾镇","type":"shop","location":"121.373906,31.208131","township":"新泾镇"},{"name":"上海市长宁区瑞灵电脑维修经营部","addr":"泉口路393号","phone":"13916582437--姚先生","street":"新泾镇","type":"shop","location":"121.359289,31.214590","township":"新泾镇"},{"name":"李记修鞋店","addr":"仙霞西路299号虹康美天菜场旁","phone":"13818478359--李先生","street":"新泾镇","type":"shop","location":"121.365877,31.208336","township":"新泾镇"},{"name":"绿一裁缝","addr":"淞虹路685弄96号一楼","phone":"13817618754--吴先生","street":"新泾镇","type":"shop","location":"121.358754,31.213977","township":"新泾镇"},{"name":"泰洁干洗","addr":"福泉路466号(近新泾路)","phone":"52202499--花小姐","street":"新泾镇","type":"shop","location":"121.360075,31.204425","township":"新泾镇"},{"name":"小倪社区家电维修部","addr":"福泉路255弄57号101室","phone":"52194847--倪先生","street":"新泾镇","type":"shop","location":"121.358318,31.212264","township":"新泾镇"},{"name":"奔洋家电维修中心","addr":"平塘路710号","phone":"52170897--黄先生","street":"新泾镇","type":"shop","location":"121.365664,31.206606","township":"新泾镇"},{"name":"蒙恩花圃","addr":"剑河路421号","phone":"13661637110--屠先生","street":"新泾镇","type":"shop","location":"121.367847,31.214221","township":"新泾镇"},{"name":"上海市长宁区忠伟车行","addr":"可乐路122号","phone":"13816891852--李先生","street":"新泾镇","type":"shop","location":"121.365710,31.206180","township":"新泾镇"},{"name":"华宁足浴","addr":"新泾路252号","phone":"52200645--陆小姐","street":"新泾镇","type":"shop","location":"121.014053,30.888601","township":"枫泾镇"},{"name":"优葩（中国）造型理容会所","addr":"定威路48号","phone":"13764135692--周先生","street":"新泾镇","type":"care","location":"121.355274,31.216299","township":"新泾镇"},{"name":"伟民装潢店","addr":"双流路322号","phone":"13651696584--刘先生","street":"新泾镇","type":"shop","location":"121.381041,31.217498","township":"新泾镇"},{"name":"黄琴保姆介绍所（剑河路店）","addr":"剑河路414弄门口","phone":"52170991--黄小姐","street":"新泾镇","type":"shop","location":"121.368627,31.213321","township":"新泾镇"},{"name":"心园工作室","addr":"宣化路3号三楼","phone":"62521323--心园工作室","street":"江苏路街道","type":"shop","location":"121.430786,31.217717","township":"江苏路街道"},{"name":"李琴人民调解工作室","addr":"江苏路563弄8号101室62","phone":"62266092--朱文","street":"江苏路街道","type":"shop","location":"121.433126,31.215805","township":"江苏路街道"},{"name":"施锦昌（修锁配钥匙）","addr":"安化路19号","phone":"62131053、13023124308--施锦昌","street":"江苏路街道","type":"shop","location":"121.431708,31.215796","township":"江苏路街道"},{"name":"江苏社区慈善接收站","addr":"江苏路563弄8号107室","phone":"32120923--曹蕾","street":"江苏路街道","type":"shop","location":"121.433126,31.215805","township":"江苏路街道"},{"name":"上海鉴璟实业有限公司（宣化路店）","addr":"宣化路3号2楼C07室","phone":"18917132639、52392639--戴懿","street":"江苏路街道","type":"shop","location":"121.430786,31.217717","township":"江苏路街道"},{"name":"陈飞（燃气灶、热水器、油烟机）","addr":"万航渡路623弄64号","phone":"13044632345--陈飞","street":"江苏路街道","type":"shop","location":"121.435171,31.226840","township":"曹家渡街道"},{"name":"江苏社区计生综合服务站","addr":"江苏路563弄8号108室","phone":"62256600*210--陈岚君","street":"江苏路街道","type":"shop","location":"121.433126,31.215805","township":"江苏路街道"},{"name":"江苏社区事务受理服务中心","addr":"江苏路563弄8号","phone":"62256600--王利铭","street":"江苏路街道","type":"shop","location":"121.433126,31.215805","township":"江苏路街道"},{"name":"上海弘彪信息科技有限公司","addr":"东诸安浜路227号4楼             62253665","phone":"62253665--曾爱辉","street":"江苏路街道","type":"shop","location":"121.432107,31.217841","township":"江苏路街道"},{"name":"太丰助老服务社","addr":"江苏路街道区域内流动","phone":"18918312189--夏师傅","street":"江苏路街道","type":"shop","location":"121.428700,31.215420","township":"江苏路街道"},{"name":"江苏老年日托服务中心","addr":"安西路307号","phone":"62256190--王静","street":"江苏路街道","type":"shop","location":"121.425375,31.216359","township":"江苏路街道"},{"name":"上海松紧带厂","addr":"愚园路1032弄60号","phone":"62521657、62525150--陶勇","street":"江苏路街道","type":"shop","location":"121.429122,31.220383","township":"江苏路街道"},{"name":"吴兴祥（修鞋、修伞、修箱包）","addr":"愚园路1088弄口","phone":"13918813586--吴兴祥","street":"江苏路街道","type":"shop","location":"121.428425,31.220315","township":"江苏路街道"},{"name":"上海蓝火商贸有限公司","addr":"愚园路749弄34号","phone":"62138525--周林萍","street":"江苏路街道","type":"shop","location":"121.435238,31.218770","township":"江苏路街道"},{"name":"张怀念（修伞、磨刀店）","addr":"江苏路街道区域内流动","phone":"14782974140--张怀年","street":"江苏路街道","type":"shop","location":"121.428700,31.215420","township":"江苏路街道"},{"name":"孙其根（磨刀）","addr":"江苏路街道区域内流动","phone":"18721134306--孙其根","street":"江苏路街道","type":"shop","location":"121.428700,31.215420","township":"江苏路街道"},{"name":"上海新益实业有限公司","addr":"安化路201号103室","phone":"62256021、13671646394--陈海燕","street":"江苏路街道","type":"shop","location":"121.427925,31.215136","township":"江苏路街道"},{"name":"愚江家庭劳务介绍所","addr":"江苏路96号203室","phone":"62406511--王黎萍","street":"江苏路街道","type":"shop","location":"121.428777,31.222911","township":"江苏路街道"},{"name":"百联佳维电器维修部","addr":"安化路157号","phone":"62125995、51756352--代素薇、孙东明","street":"江苏路街道","type":"shop","location":"121.428958,31.215228","township":"江苏路街道"},{"name":"富宇劳务服务有限公司","addr":"愚园路749弄34号","phone":"62138525、62139853--周林萍","street":"江苏路街道","type":"shop","location":"121.435238,31.218770","township":"江苏路街道"},{"name":"上海清颖服务社（天山店）","addr":"天山四村122号3号楼410室","phone":"13120516908--范冬燕","street":"天山路街道","type":"shop","location":"121.402550,31.212596","township":"天山路街道"},{"name":"市西邮政局天山路邮政支局","addr":"天山路1730号","phone":"13371967261--蒋蓉华","street":"天山路街道","type":"shop","location":"121.409212,31.210508","township":"天山路街道"},{"name":"上海资创机电设备有限公司","addr":"天山四村122号3号楼402室","phone":"13916359852--朱俊","street":"天山路街道","type":"shop","location":"121.402550,31.212596","township":"天山路街道"},{"name":"上海奕奕企业管理有限公司","addr":"定西路1232号1号楼206室","phone":"13501762896--刘建华","street":"天山路街道","type":"shop","location":"121.423020,31.214460","township":"华阳路街道"},{"name":"上海理陶电器设备维修服务有限公司","addr":"天山四村146号11室","phone":"13381801719--曹炜跃","street":"天山路街道","type":"shop","location":"121.404320,31.212338","township":"天山路街道"},{"name":"俞雅娟毛衣织补","addr":"天山四村122号3号楼402室","phone":"62332625--俞雅娟","street":"天山路街道","type":"shop","location":"121.402550,31.212596","township":"天山路街道"},{"name":"陈惠娣毛衣织补","addr":"天山四村122号3号楼402室","phone":"62332625--陈惠娣","street":"天山路街道","type":"shop","location":"121.402550,31.212596","township":"天山路街道"},{"name":"老田修鞋店","addr":"天山四村122号3号楼402室","phone":"62336400--田玉雨","street":"天山路街道","type":"shop","location":"121.402550,31.212596","township":"天山路街道"},{"name":"精工钟表、眼镜修理店","addr":"遵义路700号105室","phone":"13764219031--黄雍","street":"天山路街道","type":"shop","location":"121.408592,31.214464","township":"天山路街道"},{"name":"老刘钟表店","addr":"天山四村122号3号楼402室","phone":"62332625--刘正洪","street":"天山路街道","type":"shop","location":"121.402550,31.212596","township":"天山路街道"},{"name":"建辉修、配锁","addr":"娄山关路764弄2号","phone":"13003227297--徐建辉","street":"天山路街道","type":"shop","location":"121.404628,31.211876","township":"天山路街道"},{"name":"惠明家电维修","addr":"天山四村122号3号楼402室","phone":"13761755178--徐惠明","street":"天山路街道","type":"shop","location":"121.402550,31.212596","township":"天山路街道"},{"name":"长帮小李理发店","addr":"玉屏南路731弄3号101室","phone":"62748097--李梅娣","street":"天山路街道","type":"care","location":"121.399901,31.214923","township":"天山路街道"},{"name":"小董理发服务","addr":"玉屏南路551号101室","phone":"13901898575--董光琳","street":"天山路街道","type":"care","location":"121.403377,31.214144","township":"天山路街道"},{"name":"周方理发服务","addr":"玉屏南路345弄13号105室","phone":"13501851753--周方","street":"天山路街道","type":"care","location":"121.407231,31.212210","township":"天山路街道"},{"name":"张超钟表修理","addr":"长宁支路274号","phone":"13391407209--张超","street":"华阳路街道","type":"shop","location":"121.424233,31.224702","township":"华阳路街道"},{"name":"陆善能管道疏通","addr":"长宁支路274号","phone":"13816357007--陆善能","street":"华阳路街道","type":"shop","location":"121.424233,31.224702","township":"华阳路街道"},{"name":"李阿妹缝纫修补","addr":"长宁支路274号","phone":"18917995331--李阿妹","street":"华阳路街道","type":"shop","location":"121.424233,31.224702","township":"华阳路街道"},{"name":"老徐理发店","addr":"长宁支路274号","phone":"13816095964--徐正常","street":"华阳路街道","type":"care","location":"121.424233,31.224702","township":"华阳路街道"},{"name":"小黎修脚","addr":"长宁支路274号","phone":"13482133851--黎枝英","street":"华阳路街道","type":"shop","location":"121.424233,31.224702","township":"华阳路街道"},{"name":"华阳街道慈善超市","addr":"长宁支路274号","phone":"15921736312--姚宗宝","street":"华阳路街道","type":"shop","location":"121.424233,31.224702","township":"华阳路街道"},{"name":"上海馨贝家庭服务有限公司","addr":"长宁之路274号","phone":"13310033991--赵惠敏","street":"华阳路街道","type":"shop","location":"121.424315,31.224939","township":"华阳路街道"},{"name":"上海蓓洁纺织品有限公司","addr":"普陀区绥德路1弄1号301室","phone":"13512128119--曹爱芳","street":"华阳路街道","type":"shop","location":"121.382821,31.263515","township":"真如镇街道"},{"name":"上海硕东商贸有限公司","addr":"普陀区杏山路500弄7号","phone":"13917801581--张卫东","street":"华阳路街道","type":"shop","location":"121.404964,31.238076","township":"曹杨新村街道"},{"name":"优街坊生活服务社","addr":"长宁支路274号","phone":"13917801581--张卫东","street":"华阳路街道","type":"shop","location":"121.424233,31.224702","township":"华阳路街道"},{"name":"新华社区体育中心","addr":"安顺路79号","phone":"62807368--冯悦","street":"新华路街道","type":"shop","location":"121.423009,31.201025","township":"新华路街道"},{"name":"新华街道社区生活服务中心","addr":"法华镇路322号","phone":"62418723--张莉","street":"新华路街道","type":"shop","location":"121.428716,31.203592","township":"新华路街道"},{"name":"象王洗衣有限公司（法华镇路店）","addr":"法华镇路515号","phone":"18918100580--潘龙进","street":"新华路街道","type":"shop","location":"121.425684,31.204806","township":"新华路街道"},{"name":"卡伦理发店","addr":"法华镇路348号","phone":"62830715--裴夕平","street":"新华路街道","type":"care","location":"121.427823,31.203868","township":"新华路街道"},{"name":"秋霞阁酒家（外卖部）","addr":"定西路591号","phone":"13012868375--李经理","street":"新华路街道","type":"foods","location":"121.423274,31.204628","township":"新华路街道"},{"name":"蒙娜丽莎摄影馆","addr":"新华路430号","phone":"62810795--郭师傅","street":"新华路街道","type":"shop","location":"121.424444,31.203953","township":"新华路街道"},{"name":"新华社区阳光基地","addr":"新华路370弄10号","phone":"13391061732--王静芬","street":"新华路街道","type":"shop","location":"121.425318,31.204025","township":"新华路街道"},{"name":"法华颐养院（养老院）","addr":"法华镇路920号","phone":"13671516219--顾鹏飞","street":"新华路街道","type":"shop","location":"121.418493,31.207654","township":"新华路街道"},{"name":"捷安特自行车行","addr":"法华镇路320号","phone":"13917938759--赵庆华","street":"新华路街道","type":"shop","location":"121.429032,31.203691","township":"新华路街道"},{"name":"新华社区事务受理服务中心","addr":"法华镇路521号","phone":"13918581752--卢晓燕","street":"新华路街道","type":"shop","location":"121.425561,31.204864","township":"新华路街道"},{"name":"长宁区新华社区慈善超市","addr":"法华镇路712号","phone":"13817213422--陈毓","street":"新华路街道","type":"shop","location":"121.422349,31.206197","township":"新华路街道"},{"name":"黄琴放心家政（法华镇路店）","addr":"法华镇路322号","phone":"13052100059、62417231--黄琴、王瑶红","street":"新华路街道","type":"shop","location":"121.428716,31.203592","township":"新华路街道"},{"name":"拯救汽车一条龙服务志愿者工作室","addr":"虹桥路2282号3楼","phone":"22300150--蔡水泉","street":"程家桥街道","type":"shop","location":"121.375014,31.191241","township":"程家桥街道"},{"name":"紫泰物业志愿者工作室","addr":"虹桥路2282号3楼","phone":"22300150--朱晓华","street":"程家桥街道","type":"shop","location":"121.375014,31.191241","township":"程家桥街道"},{"name":"缘梦金剪美发工作室","addr":"虹桥路2282号3楼","phone":"22300150--薛为将","street":"程家桥街道","type":"care","location":"121.375014,31.191241","township":"程家桥街道"},{"name":"彩云手工编织工作室","addr":"哈密路1800弄23号王满居委会活动室","phone":"62423092--屠彩云","street":"程家桥街道","type":"shop","location":"121.370935,31.195807","township":"新泾镇"},{"name":"阳光党员志愿者工作室","addr":"哈密路1800弄23号王满居委会活动室","phone":"22300093--盛梅芳","street":"程家桥街道","type":"shop","location":"121.370935,31.195807","township":"新泾镇"},{"name":"“绿之桥”丝网花制作党员志愿者工作室","addr":"程桥二村10号老年活动室","phone":"13162575242--赵拥娣","street":"程家桥街道","type":"shop","location":"121.374019,31.189342","township":"程家桥街道"},{"name":"红枫党员志愿者工作室","addr":"虹桥路2282号程家桥街道党员服务中心","phone":"22300071--尹香君","street":"程家桥街道","type":"shop","location":"121.375014,31.191241","township":"程家桥街道"},{"name":"青年职业指导工作室","addr":"虹桥路2282号程家桥街道事务受理服务中心","phone":"22300130--陈迎红","street":"程家桥街道","type":"shop","location":"121.375014,31.191241","township":"程家桥街道"},{"name":"党建实务咨询工作室","addr":"虹桥路2282号程家桥街道党员服务中心","phone":"22300150--陆斌","street":"程家桥街道","type":"shop","location":"121.375014,31.191241","township":"程家桥街道"},{"name":"群乐法律工作室","addr":"哈密路1947号程家桥社区综治中心","phone":"22300001--韩锦琦","street":"程家桥街道","type":"shop","location":"121.368436,31.194779","township":"程家桥街道"},{"name":"上海晓红法律与心理辅导工作室","addr":"哈密路1947号程家桥社区综治中心","phone":"22300001--黄凯华","street":"程家桥街道","type":"shop","location":"121.368436,31.194779","township":"程家桥街道"},{"name":"虹桥机场新村“和谐家园”党员志愿者工作室","addr":"虹桥机场新村97号101红枫广场","phone":"22300045--于红珊","street":"程家桥街道","type":"shop","location":"121.354126,31.183910","township":"程家桥街道"},{"name":"长宁区建军制冷家电维修部","addr":"哈密路2号","phone":"62906893--仇建军","street":"北新泾街道","type":"shop","location":"121.377826,31.219156","township":"北新泾街道"},{"name":"茗茗保姆介绍所","addr":"剑河路99号","phone":"62395375--李阿宝","street":"北新泾街道","type":"shop","location":"121.368021,31.220918","township":"北新泾街道"},{"name":"北新泾慈善服务社（慈善超市）","addr":"天山西路90号","phone":"62156391--徐光宁","street":"北新泾街道","type":"shop","location":"121.373944,31.216887","township":"北新泾街道"},{"name":"新锦华电子电器废旧物质回收利用公司","addr":"蒲松北路9号","phone":"62385500--陆德贵","street":"北新泾街道","type":"shop","location":"121.374897,31.218535","township":"北新泾街道"},{"name":"上海新仙霞职业培训中心","addr":"天山五村","phone":"--","street":"仙霞新村街道","type":"shop","location":"121.397737,31.211058","township":"仙霞新村街道"},{"name":"上海智威环境设备工程有限公司","addr":"茅台路298号3楼","phone":"--","street":"仙霞新村街道","type":"shop","location":"121.398193,31.209905","township":"仙霞新村街道"},{"name":"上海金麟保洁服务社","addr":"茅台路298号3楼","phone":"--","street":"仙霞新村街道","type":"shop","location":"121.398193,31.209905","township":"仙霞新村街道"},{"name":"上海宝麟保洁有限公司","addr":"茅台路298号3楼","phone":"--","street":"仙霞新村街道","type":"shop","location":"121.398193,31.209905","township":"仙霞新村街道"},{"name":"上海伟宁网络安全技术有限公司","addr":"天山支路","phone":"--","street":"周家桥街道","type":"shop","location":"121.398609,31.215048","township":"周家桥街道"},{"name":"上海挚尚网络信息科技有限公司","addr":"长宁支路","phone":"--","street":"周家桥街道","type":"shop","location":"121.423627,31.223073","township":"华阳路街道"},{"name":"上海赤点贸易有限公司","addr":"长宁支路","phone":"--","street":"周家桥街道","type":"shop","location":"121.423627,31.223073","township":"华阳路街道"},{"name":"上海新长宁集团绿化发展有限公司","addr":"芙蓉江路18号3楼","phone":"--","street":"仙霞新村街道","type":"care","location":"121.395134,31.204427","township":"仙霞新村街道"},{"name":"上海新长宁集团大楼物业有限公司","addr":"芙蓉江路18号","phone":"--","street":"仙霞新村街道","type":"shop","location":"121.395134,31.204427","township":"仙霞新村街道"},{"name":"上海永乐物业有限公司","addr":"安龙路464号","phone":"--","street":"仙霞新村街道","type":"shop","location":"121.387393,31.204554","township":"仙霞新村街道"},{"name":"上海新长宁集团仙霞物业有限公司","addr":"茅台路298号","phone":"--","street":"仙霞新村街道","type":"shop","location":"121.398193,31.209905","township":"仙霞新村街道"},{"name":"新长宁慧生活","addr":"茅台路630号","phone":"62590998--服务热线","street":"仙霞新村街道","type":"shop","location":"121.387946,31.210624","township":"仙霞新村街道"},{"name":"申通快递","addr":"上海市申通快递中部","phone":"18916266857--王宇","street":"","type":"shop","location":"121.179112,31.360404","township":"外冈镇"},{"name":"银龄阁助餐","addr":"安顺路165号","phone":"62085102--吴经理","street":"虹桥街道","type":"foods","location":"121.418693,31.201536","township":"虹桥街道"},{"name":"欣神洗衣店","addr":"安顺路170号","phone":"62090094--刘家乐","street":"虹桥街道","type":"shop","location":"121.416827,31.201115","township":"天山路街道"},{"name":"东方洗衣店","addr":"安顺路242号","phone":"62096159--王先生","street":"虹桥街道","type":"shop","location":"121.414910,31.200508","township":"天山路街道"},{"name":"上海市长宁区良志五金电器商店","addr":"上海市长宁区新泾镇金钟路434号","phone":"15026851740，62383912--昂爱莲","street":"北新泾街道","type":"shop","location":"121.363372,31.220231","township":"北新泾街道"},{"name":"上海银叶餐饮有限公司","addr":"上海市普陀区红棉路321号","phone":"--","street":"","type":"foods","location":"121.351522,31.283317","township":"桃浦镇"},{"name":"爱生雅（上海）健康管理有限公司","addr":"上海市静安区南京西路580号B栋702室","phone":"--","street":"北新泾街道","type":"shop","location":"121.466056,31.231072","township":"石门二路街道"},{"name":"红蜻蜓洁利洗衣店","addr":"上海市长宁区天山西路360号","phone":"--","street":"北新泾街道","type":"shop","location":"121.365801,31.217940","township":"北新泾街道"},{"name":"沪长民民证字第0455号","addr":"上海市长宁区哈密路1953号608室","phone":"--","street":"北新泾街道","type":"shop","location":"121.368505,31.194669","township":"程家桥街道"},{"name":"上海真情居家养护服务站","addr":"上海市长宁区哈密路1953号608室","phone":"--","street":"程家桥街道","type":"shop","location":"121.368505,31.194669","township":"程家桥街道"},{"name":"光明乳业长宁程桥奶站","addr":"上海市长宁区哈密路1940弄13号","phone":"--","street":"程家桥街道","type":"shop","location":"121.369425,31.193549","township":"程家桥街道"},{"name":"GEP干洗哈密店","addr":"上海市长宁区哈密路1898号","phone":"--","street":"程家桥街道","type":"shop","location":"121.369177,31.194315","township":"程家桥街道"},{"name":"中央商场维修公司西郊店","addr":"上海市长宁区程家桥路108号","phone":"--","street":"程家桥街道","type":"shop","location":"121.372656,31.188501","township":"程家桥街道"},{"name":"上海长宁区逸仙第三敬老院助餐","addr":"上海市安西路651号","phone":"--","street":"江苏路街道","type":"foods","location":"121.425332,31.214601","township":"江苏路街道"},{"name":"上海喜雅爱心社区服务中心","addr":"茅台路298号403室","phone":"13918064481--茅老师","street":"仙霞新村街道","type":"shop","location":"121.398193,31.209905","township":"仙霞新村街道"},{"name":"个体扦脚","addr":"利西路842号","phone":"--","street":"江苏路街道","type":"shop","location":"121.429047,31.214836","township":"江苏路街道"},{"name":"社区理发店、刘茂开","addr":"虹桥路1115*73*103","phone":"--","street":"虹桥街道","type":"care","location":"121.410384,31.197019","township":"虹桥街道"},{"name":"社区维修、关志文","addr":"虹桥路1115*22*101","phone":"--","street":"虹桥街道","type":"shop","location":"121.410384,31.197019","township":"虹桥街道"},{"name":"扬州足疗扦脚部","addr":"虹古路377弄22号-4虹纺小区内","phone":"13764531562--洪国祥","street":"仙霞新村街道","type":"shop","location":"121.389025,31.202361","township":"仙霞新村街道"},{"name":"幸福理发店（新华）","addr":"番禺路215弄104号","phone":"--","street":"新华路街道","type":"care","location":"121.428320,31.197338","township":"徐家汇街道"},{"name":"多旺餐厅","addr":"番禺路200号","phone":"--","street":"新华路街道","type":"foods","location":"121.429293,31.207117","township":"新华路街道"},{"name":"英姿盲人按摩（新华）","addr":"法华镇路89号","phone":"--","street":"新华路街道","type":"shop","location":"121.432848,31.202833","township":"新华路街道"},{"name":"象王","addr":"法华镇路515号","phone":"--","street":"新华路街道","type":"shop","location":"121.425684,31.204806","township":"新华路街道"},{"name":"卡伦理发店","addr":"法华镇路348号","phone":"--","street":"新华路街道","type":"care","location":"121.427823,31.203868","township":"新华路街道"},{"name":"秋霞阁","addr":"定西路599号","phone":"--","street":"新华路街道","type":"shop","location":"121.423556,31.210046","township":"华阳路街道"},{"name":"上海市长宁区星梦园大酒店","addr":"长宁区泉口路117-119号","phone":"--","street":"新泾镇","type":"foods","location":"121.371192,31.212230","township":"新泾镇"},{"name":"北新泾街道日托","addr":"北渔路84号","phone":"--","street":"北新泾街道","type":"shop","location":"121.372619,31.216102","township":"北新泾街道"},{"name":"伊犁理发店","addr":"安顺路360号","phone":"--","street":"虹桥街道","type":"care","location":"121.408929,31.200541","township":"虹桥街道"},{"name":"浩利干洗店","addr":"安顺路242号","phone":"--周利芳","street":"虹桥街道","type":"shop","location":"121.414910,31.200508","township":"天山路街道"},{"name":"欣神洗衣","addr":"安顺路170号","phone":"--刘家乐","street":"虹桥街道","type":"shop","location":"121.416827,31.201115","township":"天山路街道"},{"name":"颖靓美发","addr":"虹桥路996弄14号后门","phone":"13916518781--顾惠中","street":"虹桥街道","type":"care","location":"121.419603,31.195113","township":"虹桥街道"},{"name":"丝帝护肤造型美容中心","addr":"黄金城道748号","phone":"13601929089--沈军","street":"虹桥街道","type":"care","location":"121.399429,31.195555","township":"虹桥街道"},{"name":"艺流美容美发店","addr":"古羊路306号","phone":"62708381、13564357947--张翔","street":"虹桥街道","type":"care","location":"121.413051,31.191382","township":"虹桥街道"},{"name":"上海市长宁区安顺足部保健服务部（洋洋扦脚店）","addr":"安顺路360号","phone":"62099236--李从义","street":"虹桥街道","type":"shop","location":"121.408929,31.200541","township":"虹桥街道"},{"name":"慧峰家电维修","addr":"伊犁路134弄20号102室","phone":"62958840--袁建慧","street":"虹桥街道","type":"shop","location":"121.408768,31.200530","township":"虹桥街道"},{"name":"上海市长宁区哈老伯修鞋店（哈里伯伯品牌皮具护理）","addr":"安顺路324号","phone":"62097680--倪海东","street":"虹桥街道","type":"shop","location":"121.411081,31.200157","township":"虹桥街道"},{"name":"宏达五金店","addr":"中山西路1410弄1412号","phone":"13512113238--郑清坚","street":"虹桥街道","type":"shop","location":"121.417207,31.192643","township":"虹桥街道"},{"name":"李小妹服装店","addr":"伊犁路134弄2号103室","phone":"18917559253--李小妹","street":"虹桥街道","type":"shop","location":"121.408569,31.201416","township":"虹桥街道"},{"name":"上海亮丽商务咨询服务公司","addr":"长顺路50弄36号104室","phone":"13917137871--田爱玲","street":"虹桥街道","type":"shop","location":"121.417873,31.199811","township":"虹桥街道"},{"name":"小扬州理发店","addr":"中山西路1030弄31号102室","phone":"62097571--洪广兵","street":"虹桥街道","type":"care","location":"121.413967,31.198047","township":"虹桥街道"},{"name":"雍有俊便民服务点","addr":"中山西路1030弄6号","phone":"13818120488--雍有俊","street":"虹桥街道","type":"shop","location":"121.413000,31.199130","township":"虹桥街道"},{"name":"黄中钟表眼镜店","addr":"长顺路33号-2","phone":"62089858--黄中","street":"虹桥街道","type":"shop","location":"121.418280,31.198947","township":"虹桥街道"}]