[{"name":"安迪造型","addr":"安顺路382号","phone":"32160781--黄国飞","street":"虹桥街道","type":"care","location":"121.408014,31.200763","township":"虹桥街道","SHXY":["-6066.312328827515","-3644.8334852024796"]},{"name":"季心飞便民理发店","addr":"安顺路360号","phone":"13764546756--季心飞","street":"虹桥街道","type":"care","location":"121.408929,31.200541","township":"虹桥街道","SHXY":["-5976.682273446314","-3668.3140527286587"]},{"name":"上海罗意诗美容美发有限公司","addr":"安顺路354号1层店铺","phone":"32181202、13601622067--沈娟","street":"虹桥街道","type":"care","location":"121.409622,31.200485","township":"虹桥街道","SHXY":["-5910.686100073653","-3675.8285993873797"]},{"name":"零点造型","addr":"安顺路304号","phone":"62752498--梅国平","street":"虹桥街道","type":"care","location":"121.411888,31.200051","township":"虹桥街道","SHXY":["-5695.252759940721","-3725.185263715559"]},{"name":"幻影专业美发","addr":"虹桥路953弄6号2室","phone":"13917600617--朱继成","street":"虹桥街道","type":"care","location":"121.419616,31.196884","township":"虹桥街道","SHXY":["-4957.908364780348","-4075.475199915525"]},{"name":"小夏理发店","addr":"虹桥路953弄64号104室","phone":"15801846224--夏燕珍","street":"虹桥街道","type":"care","location":"121.419036,31.198411","township":"虹桥街道","SHXY":["-5014.24141105663","-3907.206949995348"]},{"name":"殷文杰便民理发店","addr":"中山西路1410弄小区内","phone":"13046670948--殷文杰","street":"虹桥街道","type":"care","location":"121.425810,31.183529","township":"田林街道","SHXY":["-4369.763709603045","-5555.367422012724"]},{"name":"小刘理发店","addr":"虹梅路3888弄7号103室","phone":"62611030--刘长江","street":"虹桥街道","type":"care","location":"121.384520,31.192945","township":"虹桥街道","SHXY":["-8304.024733393717","-4509.527024436041"]},{"name":"上海真情家政服务中心","addr":"长宁路2031号18号楼","phone":"15301667340--店员","street":"仙霞新村街道","type":"shop","location":"121.401271,31.218118","township":"周家桥街道","SHXY":["-6704.681366645944","-1721.5437624871897"]},{"name":"上海清颖服务社（仙霞店）","addr":"天山四村122号3号楼410","phone":"13120516908--范冬燕","street":"仙霞新村街道","type":"shop","location":"121.402550,31.212596","township":"天山路街道","SHXY":["-6583.971039074151","-2332.4875198812874"]},{"name":"国豪光学眼镜","addr":"安龙路429号","phone":"62420631--周家兴","street":"仙霞新村街道","type":"shop","location":"121.387190,31.204858","township":"仙霞新村街道","SHXY":["-8048.9806369130365","-3191.106559961302"]},{"name":"卿维美容美发店","addr":"虹古路377弄22号","phone":"62620198--陈陈","street":"仙霞新村街道","type":"care","location":"121.388961,31.202518","township":"仙霞新村街道","SHXY":["-7881.959547877981","-3450.4707214220466"]},{"name":"经为摄影工作室","addr":"水城路382弄14号","phone":"62339946--徐经为","street":"仙霞新村街道","type":"shop","location":"121.392599,31.206398","township":"仙霞新村街道","SHXY":["-7534.733809663324","-3016.9440640536714"]},{"name":"上海章爱萍劳务公司","addr":"虹古路417弄9号","phone":"32141167--店员","street":"仙霞新村街道","type":"shop","location":"121.386038,31.203516","township":"仙霞新村街道","SHXY":["-8157.0245175018035","-3336.520903933278"]},{"name":"帮帮家政服务公司","addr":"水城路361号102室","phone":"62620749、18221392808--店员","street":"仙霞新村街道","type":"shop","location":"121.391850,31.213385","township":"仙霞新村街道","SHXY":["-7606.056588665302","-2242.4524910754103"]},{"name":"上海泰阳绿色干洗连锁","addr":"虹古路333号","phone":"62420743--店员","street":"仙霞新村街道","type":"shop","location":"121.390935,31.203642","township":"仙霞新村街道","SHXY":["-7690.5447248872215","-3324.4614614777083"]},{"name":"陈永兴（便民服务队）","addr":"仙霞新村街道各社区内流动服务","phone":"13661754986--陈永兴","street":"仙霞新村街道","type":"shop","location":"121.394701,31.203999","township":"仙霞新村街道","SHXY":["-7332.357272701501","-3284.130778219716"]},{"name":"哈罗修鞋吧","addr":"虹古路371弄","phone":"13818935448--店员","street":"仙霞新村街道","type":"shop","location":"121.389568,31.203836","township":"仙霞新村街道","SHXY":["-7822.539324056706","-3303.803304072337"]},{"name":"王小毛开锁","addr":"水城路380号旁","phone":"13601843699--王小毛","street":"仙霞新村街道","type":"shop","location":"121.391000,31.206830","township":"仙霞新村街道","SHXY":["-7686.038080726031","-2969.556412271861"]},{"name":"上海震都中央空调清洁技术有限公司","addr":"金沙江路1340弄15号B幢202室","phone":"52657368*616--朱维卿","street":"仙霞新村街道","type":"shop","location":"121.386115,31.232497","township":"长征镇","SHXY":["-8147.4902603397995","-123.75365402616035"]},{"name":"上海讯展电脑","addr":"虹古路333号7号店铺","phone":"62622229--店员","street":"仙霞新村街道","type":"shop","location":"121.390935,31.203642","township":"仙霞新村街道","SHXY":["-7691.057724898666","-3326.099461533856"]},{"name":"古宋家电维修","addr":"新渔东路422号","phone":"13501650233--王宁","street":"仙霞新村街道","type":"shop","location":"121.385603,31.212429","township":"新泾镇","SHXY":["-8197.578748860618","-2348.8955859980297"]},{"name":"仙逸家电维修","addr":"茅台路455弄6号","phone":"13916808942--徐绍庆","street":"仙霞新村街道","type":"shop","location":"121.393008,31.209148","township":"仙霞新村街道","SHXY":["-7492.943120736803","-2713.205928314414"]},{"name":"诚信车行","addr":"茅台路325号","phone":"13816771420--店员","street":"仙霞新村街道","type":"shop","location":"121.396880,31.209678","township":"仙霞新村街道","SHXY":["-7126.646607224039","-2656.3049888929863"]},{"name":"常帮振铃车行","addr":"虹古路373号","phone":"62422523--店员","street":"仙霞新村街道","type":"shop","location":"121.389331,31.203656","township":"仙霞新村街道","SHXY":["-7843.816565124874","-3321.1722736915417"]},{"name":"陈刚（扦脚）","addr":"闸北区岭南路700弄10号603室","phone":"52061155--陈刚","street":"周家桥街道","type":"shop","location":"121.457479,31.317573","township":"临汾路街道","SHXY":["-1347.4007672621688","9304.64623137901"]},{"name":"祥和面馆","addr":"武夷路656号","phone":"52669308--孙祥英","street":"周家桥街道","type":"foods","location":"121.417306,31.212704","township":"周家桥街道","SHXY":["-5176.636843702977","-2321.1449782760506"]},{"name":"松明屋","addr":"泉口路180弄37号101室","phone":"15000243022--潘先生","street":"新泾镇","type":"shop","location":"121.364817,31.214443","township":"新泾镇","SHXY":["-10179.174343916498","-2123.789587224922"]},{"name":"新泾家教","addr":"泉口路185弄30号","phone":"18301897485--刘先生","street":"新泾镇","type":"shop","location":"121.367447,31.212383","township":"新泾镇","SHXY":["-9929.2785053608","-2354.42926768085"]},{"name":"上海香宝楼殡葬礼仪服务所","addr":"剑河路417号","phone":"1391663910--金先生","street":"新泾镇","type":"shop","location":"121.367614,31.214347","township":"新泾镇","SHXY":["-9914.647374924862","-2134.821154850818"]},{"name":"沈为标修表店","addr":"仙霞西路299号虹康美天菜场旁","phone":"13166049131--沈先生","street":"新泾镇","type":"shop","location":"121.365877,31.208336","township":"新泾镇","SHXY":["-10080.909921034163","-2801.6440212838875"]},{"name":"老丁修脚店","addr":"福泉路194号","phone":"13661783493--丁先生","street":"新泾镇","type":"shop","location":"121.358933,31.213003","township":"新泾镇","SHXY":["-10739.638376738196","-2282.5514737315316"]},{"name":"刘四裁缝","addr":"泉口路185弄门口","phone":"12918761032--王小姐","street":"新泾镇","type":"shop","location":"121.365864,31.213414","township":"新泾镇","SHXY":["-10080.120754992231","-2240.937026735684"]},{"name":"上海双翼花卉园艺有限公司","addr":"仙霞路1235号","phone":"13901811064--阎先生","street":"新泾镇","type":"shop","location":"121.373906,31.208131","township":"新泾镇","SHXY":["-9315.72456077143","-2827.3286134315617"]},{"name":"上海市长宁区瑞灵电脑维修经营部","addr":"泉口路393号","phone":"13916582437--姚先生","street":"新泾镇","type":"shop","location":"121.359289,31.214590","township":"新泾镇","SHXY":["-10704.976626381716","-2107.1707729322275"]},{"name":"李记修鞋店","addr":"仙霞西路299号虹康美天菜场旁","phone":"13818478359--李先生","street":"新泾镇","type":"shop","location":"121.365877,31.208336","township":"新泾镇","SHXY":["-10080.454921050852","-2800.8930212371574"]},{"name":"绿一裁缝","addr":"淞虹路685弄96号一楼","phone":"13817618754--吴先生","street":"新泾镇","type":"shop","location":"121.358754,31.213977","township":"新泾镇","SHXY":["-10757.405614283693","-2174.91059994527"]},{"name":"泰洁干洗","addr":"福泉路466号(近新泾路)","phone":"52202499--花小姐","street":"新泾镇","type":"shop","location":"121.360075,31.204425","township":"新泾镇","SHXY":["-10634.799918406912","-3235.0962111263793"]},{"name":"小倪社区家电维修部","addr":"福泉路255弄57号101室","phone":"52194847--倪先生","street":"新泾镇","type":"shop","location":"121.358318,31.212264","township":"新泾镇","SHXY":["-10799.302652549424","-2366.014566334605"]},{"name":"奔洋家电维修中心","addr":"平塘路710号","phone":"52170897--黄先生","street":"新泾镇","type":"shop","location":"121.365664,31.206606","township":"新泾镇","SHXY":["-10099.221847286097","-2994.6132028961424"]},{"name":"蒙恩花圃","addr":"剑河路421号","phone":"13661637110--屠先生","street":"新泾镇","type":"shop","location":"121.367847,31.214221","township":"新泾镇","SHXY":["-9890.997927205615","-2147.7365580940354"]},{"name":"上海市长宁区忠伟车行","addr":"可乐路122号","phone":"13816891852--李先生","street":"新泾镇","type":"shop","location":"121.365710,31.206180","township":"新泾镇","SHXY":["-10096.235320645901","-3039.7253924934375"]},{"name":"华宁足浴","addr":"新泾路252号","phone":"52200645--陆小姐","street":"新泾镇","type":"shop","location":"121.014053,30.888601","township":"枫泾镇","SHXY":["-43751.24440966393","-38168.06681133585"]},{"name":"优葩（中国）造型理容会所","addr":"定威路48号","phone":"13764135692--周先生","street":"新泾镇","type":"care","location":"121.355274,31.216299","township":"新泾镇","SHXY":["-11089.542255114253","-1919.5462381720356"]},{"name":"伟民装潢店","addr":"双流路322号","phone":"13651696584--刘先生","street":"新泾镇","type":"shop","location":"121.381041,31.217498","township":"新泾镇","SHXY":["-8633.465686240883","-1786.073639464757"]},{"name":"黄琴保姆介绍所（剑河路店）","addr":"剑河路414弄门口","phone":"52170991--黄小姐","street":"新泾镇","type":"shop","location":"121.368627,31.213321","township":"新泾镇","SHXY":["-9817.43234548133","-2250.209502941029"]},{"name":"心园工作室","addr":"宣化路3号三楼","phone":"62521323--心园工作室","street":"江苏路街道","type":"shop","location":"121.430786,31.217717","township":"江苏路街道","SHXY":["-3894.2592452641034","-1767.5627724550307"]},{"name":"李琴人民调解工作室","addr":"江苏路563弄8号101室62","phone":"62266092--朱文","street":"江苏路街道","type":"shop","location":"121.433126,31.215805","township":"江苏路街道","SHXY":["-3670.924888457558","-1979.8126686039018"]},{"name":"施锦昌（修锁配钥匙）","addr":"安化路19号","phone":"62131053、13023124308--施锦昌","street":"江苏路街道","type":"shop","location":"121.431708,31.215796","township":"江苏路街道","SHXY":["-3805.909181480685","-1979.9098643018103"]},{"name":"江苏社区慈善接收站","addr":"江苏路563弄8号107室","phone":"32120923--曹蕾","street":"江苏路街道","type":"shop","location":"121.433126,31.215805","township":"江苏路街道","SHXY":["-3672.001888434789","-1978.0796686383533"]},{"name":"上海鉴璟实业有限公司（宣化路店）","addr":"宣化路3号2楼C07室","phone":"18917132639、52392639--戴懿","street":"江苏路街道","type":"shop","location":"121.430786,31.217717","township":"江苏路街道","SHXY":["-3892.2972453113102","-1767.348772468382"]},{"name":"陈飞（燃气灶、热水器、油烟机）","addr":"万航渡路623弄64号","phone":"13044632345--陈飞","street":"江苏路街道","type":"shop","location":"121.435171,31.226840","township":"曹家渡街道","SHXY":["-3473.88894890102","-752.8773979118557"]},{"name":"江苏社区计生综合服务站","addr":"江苏路563弄8号108室","phone":"62256600*210--陈岚君","street":"江苏路街道","type":"shop","location":"121.433126,31.215805","township":"江苏路街道","SHXY":["-3671.8358884858108","-1976.8356686058091"]},{"name":"江苏社区事务受理服务中心","addr":"江苏路563弄8号","phone":"62256600--王利铭","street":"江苏路街道","type":"shop","location":"121.433126,31.215805","township":"江苏路街道","SHXY":["-3671.5248884366965","-1978.7446686449098"]},{"name":"上海弘彪信息科技有限公司","addr":"东诸安浜路227号4楼             62253665","phone":"62253665--曾爱辉","street":"江苏路街道","type":"shop","location":"121.432107,31.217841","township":"江苏路街道","SHXY":["-3766.0270757352255","-1750.1421657615126"]},{"name":"太丰助老服务社","addr":"江苏路街道区域内流动","phone":"18918312189--夏师傅","street":"江苏路街道","type":"shop","location":"121.428700,31.215420","township":"江苏路街道","SHXY":["-4092.7066715836186","-2019.2068297883918"]},{"name":"江苏老年日托服务中心","addr":"安西路307号","phone":"62256190--王静","street":"江苏路街道","type":"shop","location":"121.425375,31.216359","township":"江苏路街道","SHXY":["-4408.053171045313","-1917.1624095932518"]},{"name":"上海松紧带厂","addr":"愚园路1032弄60号","phone":"62521657、62525150--陶勇","street":"江苏路街道","type":"shop","location":"121.429122,31.220383","township":"江苏路街道","SHXY":["-4053.13307831389","-1468.7467880640343"]},{"name":"吴兴祥（修鞋、修伞、修箱包）","addr":"愚园路1088弄口","phone":"13918813586--吴兴祥","street":"江苏路街道","type":"shop","location":"121.428425,31.220315","township":"江苏路街道","SHXY":["-4117.997678714513","-1477.1000485150012"]},{"name":"上海蓝火商贸有限公司","addr":"愚园路749弄34号","phone":"62138525--周林萍","street":"江苏路街道","type":"shop","location":"121.435238,31.218770","township":"江苏路街道","SHXY":["-3467.6784711819128","-1648.2148416782456"]},{"name":"张怀念（修伞、磨刀店）","addr":"江苏路街道区域内流动","phone":"14782974140--张怀年","street":"江苏路街道","type":"shop","location":"121.428700,31.215420","township":"江苏路街道","SHXY":["-4092.4386715843934","-2021.4738297483375"]},{"name":"孙其根（磨刀）","addr":"江苏路街道区域内流动","phone":"18721134306--孙其根","street":"江苏路街道","type":"shop","location":"121.428700,31.215420","township":"江苏路街道","SHXY":["-4091.79567160752","-2020.229829775398"]},{"name":"上海新益实业有限公司","addr":"安化路201号103室","phone":"62256021、13671646394--陈海燕","street":"江苏路街道","type":"shop","location":"121.427925,31.215136","township":"江苏路街道","SHXY":["-4166.913081115346","-2052.6287619300024"]},{"name":"愚江家庭劳务介绍所","addr":"江苏路96号203室","phone":"62406511--王黎萍","street":"江苏路街道","type":"shop","location":"121.428777,31.222911","township":"江苏路街道","SHXY":["-4085.9246037567846","-1191.5222978356942"]},{"name":"百联佳维电器维修部","addr":"安化路157号","phone":"62125995、51756352--代素薇、孙东明","street":"江苏路街道","type":"shop","location":"121.428958,31.215228","township":"江苏路街道","SHXY":["-4067.602230288332","-2040.3264745447937"]},{"name":"富宇劳务服务有限公司","addr":"愚园路749弄34号","phone":"62138525、62139853--周林萍","street":"江苏路街道","type":"shop","location":"121.435238,31.218770","township":"江苏路街道","SHXY":["-3468.9944712262586","-1648.0748416925508"]},{"name":"上海清颖服务社（天山店）","addr":"天山四村122号3号楼410室","phone":"13120516908--范冬燕","street":"天山路街道","type":"shop","location":"121.402550,31.212596","township":"天山路街道","SHXY":["-6583.913039046018","-2332.447519889632"]},{"name":"市西邮政局天山路邮政支局","addr":"天山路1730号","phone":"13371967261--蒋蓉华","street":"天山路街道","type":"shop","location":"121.409212,31.210508","township":"天山路街道","SHXY":["-5948.332626882952","-2566.030580776008"]},{"name":"上海资创机电设备有限公司","addr":"天山四村122号3号楼402室","phone":"13916359852--朱俊","street":"天山路街道","type":"shop","location":"121.402550,31.212596","township":"天山路街道","SHXY":["-6583.470039087026","-2331.056519946614"]},{"name":"上海奕奕企业管理有限公司","addr":"定西路1232号1号楼206室","phone":"13501762896--刘建华","street":"天山路街道","type":"shop","location":"121.423020,31.214460","township":"华阳路街道","SHXY":["-4634.278242581889","-2127.560410148709"]},{"name":"上海理陶电器设备维修服务有限公司","addr":"天山四村146号11室","phone":"13381801719--曹炜跃","street":"天山路街道","type":"shop","location":"121.404320,31.212338","township":"天山路街道","SHXY":["-6417.850050727238","-2359.7828511940615"]},{"name":"俞雅娟毛衣织补","addr":"天山四村122号3号楼402室","phone":"62332625--俞雅娟","street":"天山路街道","type":"shop","location":"121.402550,31.212596","township":"天山路街道","SHXY":["-6582.718038993566","-2332.78451990203"]},{"name":"陈惠娣毛衣织补","addr":"天山四村122号3号楼402室","phone":"62332625--陈惠娣","street":"天山路街道","type":"shop","location":"121.402550,31.212596","township":"天山路街道","SHXY":["-6583.157039004056","-2330.7985199304017"]},{"name":"老田修鞋店","addr":"天山四村122号3号楼402室","phone":"62336400--田玉雨","street":"天山路街道","type":"shop","location":"121.402550,31.212596","township":"天山路街道","SHXY":["-6585.707039075582","-2330.7065199227723"]},{"name":"精工钟表、眼镜修理店","addr":"遵义路700号105室","phone":"13764219031--黄雍","street":"天山路街道","type":"shop","location":"121.408592,31.214464","township":"天山路街道","SHXY":["-6007.148365729702","-2124.1668798049473"]},{"name":"老刘钟表店","addr":"天山四村122号3号楼402室","phone":"62332625--刘正洪","street":"天山路街道","type":"shop","location":"121.402550,31.212596","township":"天山路街道","SHXY":["-6584.986039059846","-2332.0735198767575"]},{"name":"建辉修、配锁","addr":"娄山关路764弄2号","phone":"13003227297--徐建辉","street":"天山路街道","type":"shop","location":"121.404628,31.211876","township":"天山路街道","SHXY":["-6386.703385726557","-2411.1515310669424"]},{"name":"惠明家电维修","addr":"天山四村122号3号楼402室","phone":"13761755178--徐惠明","street":"天山路街道","type":"shop","location":"121.402550,31.212596","township":"天山路街道","SHXY":["-6584.569039048305","-2334.114519915143"]},{"name":"长帮小李理发店","addr":"玉屏南路731弄3号101室","phone":"62748097--李梅娣","street":"天山路街道","type":"care","location":"121.399901,31.214923","township":"天山路街道","SHXY":["-6836.533705937965","-2074.5851349709733"]},{"name":"小董理发服务","addr":"玉屏南路551号101室","phone":"13901898575--董光琳","street":"天山路街道","type":"care","location":"121.403377,31.214144","township":"天山路街道","SHXY":["-6506.697199221922","-2162.300336041127"]},{"name":"周方理发服务","addr":"玉屏南路345弄13号105室","phone":"13501851753--周方","street":"天山路街道","type":"care","location":"121.407231,31.212210","township":"天山路街道","SHXY":["-6139.0143581680295","-2375.805192102251"]},{"name":"张超钟表修理","addr":"长宁支路274号","phone":"13391407209--张超","street":"华阳路街道","type":"shop","location":"121.424233,31.224702","township":"华阳路街道","SHXY":["-4516.999965653535","-991.8612023981709"]},{"name":"陆善能管道疏通","addr":"长宁支路274号","phone":"13816357007--陆善能","street":"华阳路街道","type":"shop","location":"121.424233,31.224702","township":"华阳路街道","SHXY":["-4516.1609656072815","-989.3702024015088"]},{"name":"李阿妹缝纫修补","addr":"长宁支路274号","phone":"18917995331--李阿妹","street":"华阳路街道","type":"shop","location":"121.424233,31.224702","township":"华阳路街道","SHXY":["-4518.146965638514","-989.31120238625"]},{"name":"老徐理发店","addr":"长宁支路274号","phone":"13816095964--徐正常","street":"华阳路街道","type":"care","location":"121.424233,31.224702","township":"华阳路街道","SHXY":["-4519.549965665456","-989.1742024215359"]},{"name":"小黎修脚","addr":"长宁支路274号","phone":"13482133851--黎枝英","street":"华阳路街道","type":"shop","location":"121.424233,31.224702","township":"华阳路街道","SHXY":["-4516.707965657826","-992.7692024501462"]},{"name":"华阳街道慈善超市","addr":"长宁支路274号","phone":"15921736312--姚宗宝","street":"华阳路街道","type":"shop","location":"121.424233,31.224702","township":"华阳路街道","SHXY":["-4516.62596564066","-991.130202423637"]},{"name":"上海馨贝家庭服务有限公司","addr":"长宁之路274号","phone":"13310033991--赵惠敏","street":"华阳路街道","type":"shop","location":"121.424315,31.224939","township":"华阳路街道","SHXY":["-4508.667548275195","-966.7802923585783"]},{"name":"上海蓓洁纺织品有限公司","addr":"普陀区绥德路1弄1号301室","phone":"13512128119--曹爱芳","street":"华阳路街道","type":"shop","location":"121.382821,31.263515","township":"真如镇街道","SHXY":["-8459.079242079408","3313.4888644750854"]},{"name":"上海硕东商贸有限公司","addr":"普陀区杏山路500弄7号","phone":"13917801581--张卫东","street":"华阳路街道","type":"shop","location":"121.404964,31.238076","township":"曹杨新村街道","SHXY":["-6352.3074871170165","490.769611236258"]},{"name":"优街坊生活服务社","addr":"长宁支路274号","phone":"13917801581--张卫东","street":"华阳路街道","type":"shop","location":"121.424233,31.224702","township":"华阳路街道","SHXY":["-4518.179965630885","-990.4962024482388"]},{"name":"新华社区体育中心","addr":"安顺路79号","phone":"62807368--冯悦","street":"新华路街道","type":"shop","location":"121.423009,31.201025","township":"新华路街道","SHXY":["-4635.389450749617","-3616.972314837655"]},{"name":"新华街道社区生活服务中心","addr":"法华镇路322号","phone":"62418723--张莉","street":"新华路街道","type":"shop","location":"121.428716,31.203592","township":"新华路街道","SHXY":["-4090.7714054854177","-3333.6174556474357"]},{"name":"象王洗衣有限公司（法华镇路店）","addr":"法华镇路515号","phone":"18918100580--潘龙进","street":"新华路街道","type":"shop","location":"121.425684,31.204806","township":"新华路街道","SHXY":["-4378.691036602998","-3199.0850917341486"]},{"name":"卡伦理发店","addr":"法华镇路348号","phone":"62830715--裴夕平","street":"新华路街道","type":"care","location":"121.427823,31.203868","township":"新华路街道","SHXY":["-4178.521245807863","-3302.9130993394815"]},{"name":"秋霞阁酒家（外卖部）","addr":"定西路591号","phone":"13012868375--李经理","street":"新华路街道","type":"foods","location":"121.423274,31.204628","township":"新华路街道","SHXY":["-4610.40043757383","-3218.3721673322902"]},{"name":"蒙娜丽莎摄影馆","addr":"新华路430号","phone":"62810795--郭师傅","street":"新华路街道","type":"shop","location":"121.424444,31.203953","township":"新华路街道","SHXY":["-4499.78466268075","-3290.26515676148"]},{"name":"新华社区阳光基地","addr":"新华路370弄10号","phone":"13391061732--王静芬","street":"新华路街道","type":"shop","location":"121.425318,31.204025","township":"新华路街道","SHXY":["-4413.855288581662","-3285.303475561684"]},{"name":"法华颐养院（养老院）","addr":"法华镇路920号","phone":"13671516219--顾鹏飞","street":"新华路街道","type":"shop","location":"121.418493,31.207654","township":"新华路街道","SHXY":["-5066.67005209385","-2880.756198965686"]},{"name":"捷安特自行车行","addr":"法华镇路320号","phone":"13917938759--赵庆华","street":"新华路街道","type":"shop","location":"121.429032,31.203691","township":"新华路街道","SHXY":["-4061.8888817081815","-3321.737911143815"]},{"name":"新华社区事务受理服务中心","addr":"法华镇路521号","phone":"13918581752--卢晓燕","street":"新华路街道","type":"shop","location":"121.425561,31.204864","township":"新华路街道","SHXY":["-4390.536170209076","-3189.979842849663"]},{"name":"长宁区新华社区慈善超市","addr":"法华镇路712号","phone":"13817213422--陈毓","street":"新华路街道","type":"shop","location":"121.422349,31.206197","township":"新华路街道","SHXY":["-4698.492952587831","-3042.853052879095"]},{"name":"黄琴放心家政（法华镇路店）","addr":"法华镇路322号","phone":"13052100059、62417231--黄琴、王瑶红","street":"新华路街道","type":"shop","location":"121.428716,31.203592","township":"新华路街道","SHXY":["-4092.812405434396","-3331.923455686417"]},{"name":"拯救汽车一条龙服务志愿者工作室","addr":"虹桥路2282号3楼","phone":"22300150--蔡水泉","street":"程家桥街道","type":"shop","location":"121.375014,31.191241","township":"程家桥街道","SHXY":["-9210.70366973232","-4698.260445630238"]},{"name":"紫泰物业志愿者工作室","addr":"虹桥路2282号3楼","phone":"22300150--朱晓华","street":"程家桥街道","type":"shop","location":"121.375014,31.191241","township":"程家桥街道","SHXY":["-9211.446669747937","-4696.175445666597"]},{"name":"缘梦金剪美发工作室","addr":"虹桥路2282号3楼","phone":"22300150--薛为将","street":"程家桥街道","type":"care","location":"121.375014,31.191241","township":"程家桥街道","SHXY":["-9212.329669764149","-4697.508445611284"]},{"name":"彩云手工编织工作室","addr":"哈密路1800弄23号王满居委会活动室","phone":"62423092--屠彩云","street":"程家桥街道","type":"shop","location":"121.370935,31.195807","township":"新泾镇","SHXY":["-9600.25239367304","-4192.808940496802"]},{"name":"阳光党员志愿者工作室","addr":"哈密路1800弄23号王满居委会活动室","phone":"22300093--盛梅芳","street":"程家桥街道","type":"shop","location":"121.370935,31.195807","township":"新泾镇","SHXY":["-9598.961393619753","-4193.308940496802"]},{"name":"“绿之桥”丝网花制作党员志愿者工作室","addr":"程桥二村10号老年活动室","phone":"13162575242--赵拥娣","street":"程家桥街道","type":"shop","location":"121.374019,31.189342","township":"程家桥街道","SHXY":["-9305.45347698984","-4910.174637939215"]},{"name":"红枫党员志愿者工作室","addr":"虹桥路2282号程家桥街道党员服务中心","phone":"22300071--尹香君","street":"程家桥街道","type":"shop","location":"121.375014,31.191241","township":"程家桥街道","SHXY":["-9210.061669727671","-4697.738445630357"]},{"name":"青年职业指导工作室","addr":"虹桥路2282号程家桥街道事务受理服务中心","phone":"22300130--陈迎红","street":"程家桥街道","type":"shop","location":"121.375014,31.191241","township":"程家桥街道","SHXY":["-9208.559669783222","-4698.818445613668"]},{"name":"党建实务咨询工作室","addr":"虹桥路2282号程家桥街道党员服务中心","phone":"22300150--陆斌","street":"程家桥街道","type":"shop","location":"121.375014,31.191241","township":"程家桥街道","SHXY":["-9211.12866972934","-4698.587445637271"]},{"name":"群乐法律工作室","addr":"哈密路1947号程家桥社区综治中心","phone":"22300001--韩锦琦","street":"程家桥街道","type":"shop","location":"121.368436,31.194779","township":"程家桥街道","SHXY":["-9835.154433007452","-4303.985898581538"]},{"name":"上海晓红法律与心理辅导工作室","addr":"哈密路1947号程家桥社区综治中心","phone":"22300001--黄凯华","street":"程家桥街道","type":"shop","location":"121.368436,31.194779","township":"程家桥街道","SHXY":["-9835.233433003637","-4306.966898647342"]},{"name":"虹桥机场新村“和谐家园”党员志愿者工作室","addr":"虹桥机场新村97号101红枫广场","phone":"22300045--于红珊","street":"程家桥街道","type":"shop","location":"121.354126,31.183910","township":"程家桥街道","SHXY":["-11202.551887036016","-5509.399944123403"]},{"name":"长宁区建军制冷家电维修部","addr":"哈密路2号","phone":"62906893--仇建军","street":"北新泾街道","type":"shop","location":"121.377826,31.219156","township":"北新泾街道","SHXY":["-8941.179506881326","-1602.8430215018293"]},{"name":"茗茗保姆介绍所","addr":"剑河路99号","phone":"62395375--李阿宝","street":"北新泾街道","type":"shop","location":"121.368021,31.220918","township":"北新泾街道","SHXY":["-9874.036676463562","-1408.156858588832"]},{"name":"北新泾慈善服务社（慈善超市）","addr":"天山西路90号","phone":"62156391--徐光宁","street":"北新泾街道","type":"shop","location":"121.373944,31.216887","township":"北新泾街道","SHXY":["-9309.80001743979","-1854.249871931562"]},{"name":"新锦华电子电器废旧物质回收利用公司","addr":"蒲松北路9号","phone":"62385500--陆德贵","street":"北新泾街道","type":"shop","location":"121.374897,31.218535","township":"北新泾街道","SHXY":["-9218.539010715038","-1672.7967680926358"]},{"name":"上海新仙霞职业培训中心","addr":"天山五村","phone":"--","street":"仙霞新村街道","type":"shop","location":"121.397737,31.211058","township":"仙霞新村街道","SHXY":["-7043.709800972062","-2503.5815013966544"]},{"name":"上海智威环境设备工程有限公司","addr":"茅台路298号3楼","phone":"--","street":"仙霞新村街道","type":"shop","location":"121.398193,31.209905","township":"仙霞新村街道","SHXY":["-7000.586572045298","-2631.9235350424315"]},{"name":"上海金麟保洁服务社","addr":"茅台路298号3楼","phone":"--","street":"仙霞新村街道","type":"shop","location":"121.398193,31.209905","township":"仙霞新村街道","SHXY":["-7000.305572086783","-2630.5665350416566"]},{"name":"上海宝麟保洁有限公司","addr":"茅台路298号3楼","phone":"--","street":"仙霞新村街道","type":"shop","location":"121.398193,31.209905","township":"仙霞新村街道","SHXY":["-7001.513572091075","-2630.6045350516106"]},{"name":"上海伟宁网络安全技术有限公司","addr":"天山支路","phone":"--","street":"周家桥街道","type":"shop","location":"121.398609,31.215048","township":"周家桥街道","SHXY":["-6958.516857947782","-2059.963312654662"]},{"name":"上海挚尚网络信息科技有限公司","addr":"长宁支路","phone":"--","street":"周家桥街道","type":"shop","location":"121.423627,31.223073","township":"华阳路街道","SHXY":["-4577.0335643325925","-1172.2409236621331"]},{"name":"上海赤点贸易有限公司","addr":"长宁支路","phone":"--","street":"周家桥街道","type":"shop","location":"121.423627,31.223073","township":"华阳路街道","SHXY":["-4575.075564268696","-1171.4679236602258"]},{"name":"上海新长宁集团绿化发展有限公司","addr":"芙蓉江路18号3楼","phone":"--","street":"仙霞新村街道","type":"care","location":"121.395134,31.204427","township":"仙霞新村街道","SHXY":["-7292.944184969329","-3237.159599085199"]},{"name":"上海新长宁集团大楼物业有限公司","addr":"芙蓉江路18号","phone":"--","street":"仙霞新村街道","type":"shop","location":"121.395134,31.204427","township":"仙霞新村街道","SHXY":["-7291.690185020828","-3236.649599064933"]},{"name":"上海永乐物业有限公司","addr":"安龙路464号","phone":"--","street":"仙霞新村街道","type":"shop","location":"121.387393,31.204554","township":"仙霞新村街道","SHXY":["-8029.2570025665345","-3222.8143613794887"]},{"name":"上海新长宁集团仙霞物业有限公司","addr":"茅台路298号","phone":"--","street":"仙霞新村街道","type":"shop","location":"121.398193,31.209905","township":"仙霞新村街道","SHXY":["-7001.410572046252","-2628.7795349890257"]},{"name":"新长宁慧生活","addr":"茅台路630号","phone":"62590998--服务热线","street":"仙霞新村街道","type":"shop","location":"121.387946,31.210624","township":"仙霞新村街道","SHXY":["-7977.16694319872","-2550.1392570930884"]},{"name":"申通快递","addr":"上海市申通快递中部","phone":"18916266857--王宇","street":"","type":"shop","location":"121.179112,31.360404","township":"外冈镇","SHXY":["-27831.012802453974","14089.980506061296"]},{"name":"银龄阁助餐","addr":"安顺路165号","phone":"62085102--吴经理","street":"虹桥街道","type":"foods","location":"121.418693,31.201536","township":"虹桥街道","SHXY":["-5047.165359537836","-3559.374127565259"]},{"name":"欣神洗衣店","addr":"安顺路170号","phone":"62090094--刘家乐","street":"虹桥街道","type":"shop","location":"121.416827,31.201115","township":"天山路街道","SHXY":["-5224.577609663652","-3607.3494619341914"]},{"name":"东方洗衣店","addr":"安顺路242号","phone":"62096159--王先生","street":"虹桥街道","type":"shop","location":"121.414910,31.200508","township":"天山路街道","SHXY":["-5409.042925818292","-3673.921853636182"]},{"name":"上海市长宁区良志五金电器商店","addr":"上海市长宁区新泾镇金钟路434号","phone":"15026851740，62383912--昂爱莲","street":"北新泾街道","type":"shop","location":"121.363372,31.220231","township":"北新泾街道","SHXY":["-10318.209142248139","-1481.470253010847"]},{"name":"上海银叶餐饮有限公司","addr":"上海市普陀区红棉路321号","phone":"--","street":"","type":"foods","location":"121.351522,31.283317","township":"桃浦镇","SHXY":["-11439.383807948834","5511.564210783667"]},{"name":"爱生雅（上海）健康管理有限公司","addr":"上海市静安区南京西路580号B栋702室","phone":"--","street":"北新泾街道","type":"shop","location":"121.466056,31.231072","township":"石门二路街道","SHXY":["-534.121914139103","-285.28620189037133"]},{"name":"红蜻蜓洁利洗衣店","addr":"上海市长宁区天山西路360号","phone":"--","street":"北新泾街道","type":"shop","location":"121.365801,31.217940","township":"北新泾街道","SHXY":["-10084.575712155554","-1735.2164062102022"]},{"name":"沪长民民证字第0455号","addr":"上海市长宁区哈密路1953号608室","phone":"--","street":"北新泾街道","type":"shop","location":"121.368505,31.194669","township":"程家桥街道","SHXY":["-9828.86724731038","-4316.991931234897"]},{"name":"上海真情居家养护服务站","addr":"上海市长宁区哈密路1953号608室","phone":"--","street":"程家桥街道","type":"shop","location":"121.368505,31.194669","township":"程家桥街道","SHXY":["-9831.756247368554","-4316.536931251586"]},{"name":"光明乳业长宁程桥奶站","addr":"上海市长宁区哈密路1940弄13号","phone":"--","street":"程家桥街道","type":"shop","location":"121.369425,31.193549","township":"程家桥街道","SHXY":["-9742.121396787725","-4440.20723133142"]},{"name":"GEP干洗哈密店","addr":"上海市长宁区哈密路1898号","phone":"--","street":"程家桥街道","type":"shop","location":"121.369177,31.194315","township":"程家桥街道","SHXY":["-9767.510510156306","-4355.5360323306595"]},{"name":"中央商场维修公司西郊店","addr":"上海市长宁区程家桥路108号","phone":"--","street":"程家桥街道","type":"shop","location":"121.372656,31.188501","township":"程家桥街道","SHXY":["-9436.950054014027","-5003.002671560082"]},{"name":"上海长宁区逸仙第三敬老院助餐","addr":"上海市安西路651号","phone":"--","street":"江苏路街道","type":"foods","location":"121.425332,31.214601","township":"江苏路街道","SHXY":["-4412.101413682439","-2113.1004897397293"]},{"name":"上海喜雅爱心社区服务中心","addr":"茅台路298号403室","phone":"13918064481--茅老师","street":"仙霞新村街道","type":"shop","location":"121.398193,31.209905","township":"仙霞新村街道","SHXY":["-6998.612572068187","-2631.815535002377"]},{"name":"个体扦脚","addr":"利西路842号","phone":"--","street":"江苏路街道","type":"shop","location":"121.429047,31.214836","township":"江苏路街道","SHXY":["-4061.4103283202408","-2086.0799664613837"]},{"name":"社区理发店、刘茂开","addr":"虹桥路1115*73*103","phone":"--","street":"虹桥街道","type":"care","location":"121.410384,31.197019","township":"虹桥街道","SHXY":["-5838.637215725369","-4060.019072406444"]},{"name":"社区维修、关志文","addr":"虹桥路1115*22*101","phone":"--","street":"虹桥街道","type":"shop","location":"121.410384,31.197019","township":"虹桥街道","SHXY":["-5838.425215742774","-4060.371072419438"]},{"name":"扬州足疗扦脚部","addr":"虹古路377弄22号-4虹纺小区内","phone":"13764531562--洪国祥","street":"仙霞新村街道","type":"shop","location":"121.389025,31.202361","township":"仙霞新村街道","SHXY":["-7875.2619072608195","-3467.9112493517423"]},{"name":"幸福理发店（新华）","addr":"番禺路215弄104号","phone":"--","street":"新华路街道","type":"care","location":"121.428320,31.197338","township":"徐家汇街道","SHXY":["-4128.828704864364","-4024.713186324345"]},{"name":"多旺餐厅","addr":"番禺路200号","phone":"--","street":"新华路街道","type":"foods","location":"121.429293,31.207117","township":"新华路街道","SHXY":["-4037.1055449289343","-2942.000694398828"]},{"name":"英姿盲人按摩（新华）","addr":"法华镇路89号","phone":"--","street":"新华路街道","type":"shop","location":"121.432848,31.202833","township":"新华路街道","SHXY":["-3696.0904207372805","-3417.170259010477"]},{"name":"象王","addr":"法华镇路515号","phone":"--","street":"新华路街道","type":"shop","location":"121.425684,31.204806","township":"新华路街道","SHXY":["-4380.40003666147","-3195.708091759898"]},{"name":"卡伦理发店","addr":"法华镇路348号","phone":"--","street":"新华路街道","type":"care","location":"121.427823,31.203868","township":"新华路街道","SHXY":["-4177.0782457892665","-3303.1840992479288"]},{"name":"秋霞阁","addr":"定西路599号","phone":"--","street":"新华路街道","type":"shop","location":"121.423556,31.210046","township":"华阳路街道","SHXY":["-4583.377676045221","-2616.1871096165537"]},{"name":"上海市长宁区星梦园大酒店","addr":"长宁区泉口路117-119号","phone":"--","street":"新泾镇","type":"foods","location":"121.371192,31.212230","township":"新泾镇","SHXY":["-9574.151632032941","-2371.740546702874"]},{"name":"北新泾街道日托","addr":"北渔路84号","phone":"--","street":"北新泾街道","type":"shop","location":"121.372619,31.216102","township":"北新泾街道","SHXY":["-9436.05777380465","-1940.525391591383"]},{"name":"伊犁理发店","addr":"安顺路360号","phone":"--","street":"虹桥街道","type":"care","location":"121.408929,31.200541","township":"虹桥街道","SHXY":["-5979.092273412935","-3667.962052730566"]},{"name":"浩利干洗店","addr":"安顺路242号","phone":"--周利芳","street":"虹桥街道","type":"shop","location":"121.414910,31.200508","township":"天山路街道","SHXY":["-5406.2249258593","-3674.777853582776"]},{"name":"欣神洗衣","addr":"安顺路170号","phone":"--刘家乐","street":"虹桥街道","type":"shop","location":"121.416827,31.201115","township":"天山路街道","SHXY":["-5226.0416096503","-3605.180461964232"]},{"name":"颖靓美发","addr":"虹桥路996弄14号后门","phone":"13916518781--顾惠中","street":"虹桥街道","type":"care","location":"121.419603,31.195113","township":"虹桥街道","SHXY":["-4959.513960732432","-4270.923112481216"]},{"name":"丝帝护肤造型美容中心","addr":"黄金城道748号","phone":"13601929089--沈军","street":"虹桥街道","type":"care","location":"121.399429,31.195555","township":"虹桥街道","SHXY":["-6881.663839478444","-4223.198868232864"]},{"name":"艺流美容美发店","addr":"古羊路306号","phone":"62708381、13564357947--张翔","street":"虹桥街道","type":"care","location":"121.413051,31.191382","township":"虹桥街道","SHXY":["-5584.018417934974","-4685.433794111568"]},{"name":"上海市长宁区安顺足部保健服务部（洋洋扦脚店）","addr":"安顺路360号","phone":"62099236--李从义","street":"虹桥街道","type":"shop","location":"121.408929,31.200541","township":"虹桥街道","SHXY":["-5977.956273494951","-3670.742052701956"]},{"name":"慧峰家电维修","addr":"伊犁路134弄20号102室","phone":"62958840--袁建慧","street":"虹桥街道","type":"shop","location":"121.408768,31.200530","township":"虹桥街道","SHXY":["-5993.117610093683","-3671.890319447783"]},{"name":"上海市长宁区哈老伯修鞋店（哈里伯伯品牌皮具护理）","addr":"安顺路324号","phone":"62097680--倪海东","street":"虹桥街道","type":"shop","location":"121.411081,31.200157","township":"虹桥街道","SHXY":["-5771.377972952592","-3712.151726212455"]},{"name":"宏达五金店","addr":"中山西路1410弄1412号","phone":"13512113238--郑清坚","street":"虹桥街道","type":"shop","location":"121.417207,31.192643","township":"虹桥街道","SHXY":["-5188.236452515065","-4544.6535024528075"]},{"name":"李小妹服装店","addr":"伊犁路134弄2号103室","phone":"18917559253--李小妹","street":"虹桥街道","type":"shop","location":"121.408569,31.201416","township":"虹桥街道","SHXY":["-6012.176131929896","-3572.0672261057152"]},{"name":"上海亮丽商务咨询服务公司","addr":"长顺路50弄36号104室","phone":"13917137871--田爱玲","street":"虹桥街道","type":"shop","location":"121.417873,31.199811","township":"虹桥街道","SHXY":["-5126.91278072736","-3748.8597572590793"]},{"name":"小扬州理发店","addr":"中山西路1030弄31号102室","phone":"62097571--洪广兵","street":"虹桥街道","type":"care","location":"121.413967,31.198047","township":"虹桥街道","SHXY":["-5495.559708397577","-3947.162685532626"]},{"name":"雍有俊便民服务点","addr":"中山西路1030弄6号","phone":"13818120488--雍有俊","street":"虹桥街道","type":"shop","location":"121.413000,31.199130","township":"虹桥街道","SHXY":["-5590.987708710903","-3827.7887128102775"]},{"name":"黄中钟表眼镜店","addr":"长顺路33号-2","phone":"62089858--黄中","street":"虹桥街道","type":"shop","location":"121.418280,31.198947","township":"虹桥街道","SHXY":["-5086.505339101031","-3844.5981126779225"]}]