[
  {
    "street": "新华路街道",
    "name": "番禺居委会",
    "addr": "法华镇路457弄8号楼106室",
    "phone": "52307063",
    "type": "neighbor",
    "location": "121.427150,31.204669",
    "township": "新华路街道"
  },
  {
    "street": "",
    "name": "牛桥居委会",
    "addr": "番禺路222弄24号",
    "phone": "52307064",
    "type": "neighbor",
    "location": "121.427633,31.206731",
    "township": "新华路街道"
  },
  {
    "street": "",
    "name": "人民居委会",
    "addr": "定西路710弄63号102室",
    "phone": "52307067",
    "type": "neighbor",
    "location": "121.425530,31.207676",
    "township": "新华路街道"
  },
  {
    "street": "",
    "name": "西镇居委会",
    "addr": "法华镇路751弄32号101室",
    "phone": "52307073",
    "type": "neighbor",
    "location": "121.421945,31.207878",
    "township": "新华路街道"
  },
  {
    "street": "",
    "name": "杨宅居委会",
    "addr": "法华镇路660弄23号102室",
    "phone": "52307072",
    "type": "neighbor",
    "location": "121.422609,31.205526",
    "township": "新华路街道"
  },
  {
    "street": "",
    "name": "香花居委会",
    "addr": "法华镇路500弄2号105室",
    "phone": "52307065",
    "type": "neighbor",
    "location": "121.426010,31.204401",
    "township": "新华路街道"
  },
  {
    "street": "",
    "name": "新华居委会",
    "addr": "新华路365弄1号",
    "phone": "62948311",
    "type": "neighbor",
    "location": "121.425377,31.202528",
    "township": "新华路街道"
  },
  {
    "street": "",
    "name": "梅安居委会",
    "addr": "定西路420弄5号101室",
    "phone": "52307071",
    "type": "neighbor",
    "location": "121.423685,31.202801",
    "township": "新华路街道"
  },
  {
    "street": "",
    "name": "左家宅居委会",
    "addr": "安顺路89弄11号104室",
    "phone": "52307068",
    "type": "neighbor",
    "location": "121.421867,31.199834",
    "township": "新华路街道"
  },
  {
    "street": "",
    "name": "田渡居委会",
    "addr": "新华路569弄106支弄9号101室",
    "phone": "52307069",
    "type": "neighbor",
    "location": "121.420728,31.202467",
    "township": "新华路街道"
  },
  {
    "street": "",
    "name": "泰安居委会",
    "addr": "兴国路244弄49支弄6号",
    "phone": "52307055",
    "type": "neighbor",
    "location": "121.436345,31.205746",
    "township": "新华路街道"
  },
  {
    "street": "",
    "name": "陈家巷居委会",
    "addr": "华山路1533号",
    "phone": "52307056",
    "type": "neighbor",
    "location": "121.434097,31.204776",
    "township": "新华路街道"
  },
  {
    "street": "",
    "name": "东镇居委会",
    "addr": "华山路1520弄79号101室",
    "phone": "52307057",
    "type": "neighbor",
    "location": "121.431960,31.205201",
    "township": "新华路街道"
  },
  {
    "street": "",
    "name": "红庄居委会",
    "addr": "法华镇路150弄1号105室",
    "phone": "52307061",
    "type": "neighbor",
    "location": "121.432246,31.202706",
    "township": "新华路街道"
  },
  {
    "street": "",
    "name": "幸福居委会",
    "addr": "番禺路215号",
    "phone": "52307058",
    "type": "neighbor",
    "location": "121.429461,31.206378",
    "township": "新华路街道"
  },
  {
    "street": "",
    "name": "和平居委会",
    "addr": "平武路38号208室",
    "phone": "62521806",
    "type": "neighbor",
    "location": "121.430239,31.208821",
    "township": "新华路街道"
  },
  {
    "street": "",
    "name": "张家宅居委会",
    "addr": "延安西路1000号101室",
    "phone": "52550026",
    "type": "neighbor",
    "location": "121.431327,31.212691",
    "township": "新华路街道"
  },
  {
    "street": "江苏路街道",
    "name": "岐山居委会",
    "addr": "愚园路1032弄48号",
    "phone": "62524194",
    "type": "neighbor",
    "location": "121.429435,31.220227",
    "township": "江苏路街道"
  },
  {
    "street": "",
    "name": "江苏居委会",
    "addr": "愚园路718弄33号",
    "phone": "62523377",
    "type": "neighbor",
    "location": "121.434967,31.221072",
    "township": "江苏路街道"
  },
  {
    "street": "",
    "name": "万村居委会",
    "addr": "镇宁路545弄108号106室",
    "phone": "62513080",
    "type": "neighbor",
    "location": "121.433400,31.223682",
    "township": "江苏路街道"
  },
  {
    "street": "",
    "name": "南汪居委会",
    "addr": "延安西路649弄125号103室",
    "phone": "62525855",
    "type": "neighbor",
    "location": "121.434692,31.213910",
    "township": "江苏路街道"
  },
  {
    "street": "",
    "name": "东浜居委会",
    "addr": "东诸安浜路158弄2号104室",
    "phone": "62521210",
    "type": "neighbor",
    "location": "121.433412,31.218397",
    "township": "江苏路街道"
  },
  {
    "street": "",
    "name": "愚三居委会",
    "addr": "安西路23弄2号甲",
    "phone": "62525250",
    "type": "neighbor",
    "location": "121.425495,31.220960",
    "township": "江苏路街道"
  },
  {
    "street": "",
    "name": "曹家堰居委会",
    "addr": "昭化东路102号二楼",
    "phone": "62525948",
    "type": "neighbor",
    "location": "121.435923,31.214002",
    "township": "江苏路街道"
  },
  {
    "street": "",
    "name": "西浜居委会",
    "addr": "西诸安浜路435弄3号101室",
    "phone": "62525285",
    "type": "neighbor",
    "location": "121.428603,31.216509",
    "township": "江苏路街道"
  },
  {
    "street": "",
    "name": "福世居委会",
    "addr": "宣化路54号",
    "phone": "62520842",
    "type": "neighbor",
    "location": "121.430062,31.218051",
    "township": "江苏路街道"
  },
  {
    "street": "",
    "name": "长新居委会",
    "addr": "长宁路491弄31号",
    "phone": "62512563",
    "type": "neighbor",
    "location": "121.426927,31.221833",
    "township": "江苏路街道"
  },
  {
    "street": "",
    "name": "华山居委会",
    "addr": "华山路894弄1号102室",
    "phone": "62100255",
    "type": "neighbor",
    "location": "121.438456,31.212593",
    "township": "江苏路街道"
  },
  {
    "street": "",
    "name": "利西居委会",
    "addr": "延安西路983号105室",
    "phone": "62527066",
    "type": "neighbor",
    "location": "121.431000,31.213837",
    "township": "江苏路街道"
  },
  {
    "street": "",
    "name": "北汪居委会",
    "addr": "东诸安浜路59号101室",
    "phone": "62521752",
    "type": "neighbor",
    "location": "121.435793,31.218307",
    "township": "江苏路街道"
  },
  {
    "street": "华阳路街道",
    "name": "华阳路一居委会",
    "addr": "长宁路476弄4号104室",
    "phone": "52376321",
    "type": "neighbor",
    "location": "121.425541,31.222762",
    "township": "华阳路街道"
  },
  {
    "street": "",
    "name": "华阳路二居委会",
    "addr": "万航渡路1298弄1号二楼",
    "phone": "52376512",
    "type": "neighbor",
    "location": "121.422660,31.226674",
    "township": "华阳路街道"
  },
  {
    "street": "",
    "name": "华阳路三居委会",
    "addr": "华阳路255号",
    "phone": "52376323",
    "type": "neighbor",
    "location": "121.423770,31.222072",
    "township": "华阳路街道"
  },
  {
    "street": "",
    "name": "华阳路四居委会",
    "addr": "长宁路712弄79号",
    "phone": "52376320",
    "type": "neighbor",
    "location": "121.422475,31.221445",
    "township": "华阳路街道"
  },
  {
    "street": "",
    "name": "华阳路五居委会",
    "addr": "华阳路20弄6号206室",
    "phone": "52376325",
    "type": "neighbor",
    "location": "121.419879,31.224669",
    "township": "华阳路街道"
  },
  {
    "street": "",
    "name": "华院居委会",
    "addr": "万航渡路1579弄2号楼对面",
    "phone": "52376326",
    "type": "neighbor",
    "location": "121.416586,31.223737",
    "township": "华阳路街道"
  },
  {
    "street": "",
    "name": "秀水居委会",
    "addr": "万航渡路1424弄21号101室",
    "phone": "52376327",
    "type": "neighbor",
    "location": "121.422877,31.224647",
    "township": "华阳路街道"
  },
  {
    "street": "",
    "name": "长宁路一居委会",
    "addr": "长宁路118号",
    "phone": "80110069",
    "type": "neighbor",
    "location": "121.426746,31.227117",
    "township": "华阳路街道"
  },
  {
    "street": "",
    "name": "长宁支路二居委会",
    "addr": "江苏北路111弄52号106室",
    "phone": "52376330",
    "type": "neighbor",
    "location": "121.424684,31.224842",
    "township": "华阳路街道"
  },
  {
    "street": "",
    "name": "长宁路二居委会",
    "addr": "长宁支路176号204室",
    "phone": "52376533",
    "type": "neighbor",
    "location": "121.425936,31.226480",
    "township": "华阳路街道"
  },
  {
    "street": "",
    "name": "苏一居委会",
    "addr": "汇川路300弄588号二楼",
    "phone": "32083562",
    "type": "neighbor",
    "location": "121.418122,31.221425",
    "township": "华阳路街道"
  },
  {
    "street": "",
    "name": "潘东居委会",
    "addr": "武夷路337弄25号",
    "phone": "52376522",
    "type": "neighbor",
    "location": "121.423926,31.213584",
    "township": "华阳路街道"
  },
  {
    "street": "",
    "name": "潘西居委会",
    "addr": "武夷路519弄59号",
    "phone": "52376516",
    "type": "neighbor",
    "location": "121.419444,31.213499",
    "township": "华阳路街道"
  },
  {
    "street": "",
    "name": "陶家宅居委会",
    "addr": "昭化路518弄13号105室",
    "phone": "52376531",
    "type": "neighbor",
    "location": "121.420407,31.210787",
    "township": "华阳路街道"
  },
  {
    "street": "",
    "name": "徐家宅居委会",
    "addr": "昭化路60弄1号101室",
    "phone": "52376529",
    "type": "neighbor",
    "location": "121.428950,31.212441",
    "township": "华阳路街道"
  },
  {
    "street": "",
    "name": "姚家角居委会",
    "addr": "愚园路1423弄84号",
    "phone": "52376530",
    "type": "neighbor",
    "location": "121.422019,31.218434",
    "township": "华阳路街道"
  },
  {
    "street": "",
    "name": "建宁居委会",
    "addr": "武夷路416弄1号102室",
    "phone": "52376532",
    "type": "neighbor",
    "location": "121.422014,31.212554",
    "township": "华阳路街道"
  },
  {
    "street": "",
    "name": "潘中居委会",
    "addr": "定西路1235弄7号",
    "phone": "52376513",
    "type": "neighbor",
    "location": "121.422511,31.214344",
    "township": "华阳路街道"
  },
  {
    "street": "",
    "name": "天诚居委会",
    "addr": "定西路1310弄8号108室",
    "phone": "52376510",
    "type": "neighbor",
    "location": "121.422797,31.216810",
    "township": "华阳路街道"
  },
  {
    "street": "",
    "name": "飞乐居委会",
    "addr": "昭化路321号",
    "phone": "52376582",
    "type": "neighbor",
    "location": "121.425527,31.211950",
    "township": "华阳路街道"
  },
  {
    "street": "",
    "name": "西一居委会",
    "addr": "汇川路78号",
    "phone": "52736900",
    "type": "neighbor",
    "location": "121.417491,31.216473",
    "township": "华阳路街道"
  },
  {
    "street": "周家桥街道",
    "name": "范北居委会",
    "addr": "长宁路1120弄201号",
    "phone": "52722591",
    "type": "neighbor",
    "location": "121.414368,31.220310",
    "township": "周家桥街道"
  },
  {
    "street": "",
    "name": "三泾北宅居委会",
    "addr": "长宁路1135弄23号101室",
    "phone": "62748808",
    "type": "neighbor",
    "location": "121.415109,31.214372",
    "township": "周家桥街道"
  },
  {
    "street": "",
    "name": "三泾南宅居委会",
    "addr": "武夷路709弄13号101室",
    "phone": "62333100",
    "type": "neighbor",
    "location": "121.415983,31.213193",
    "township": "周家桥街道"
  },
  {
    "street": "",
    "name": "武夷居委会",
    "addr": "武夷路700弄1号103室",
    "phone": "52729403",
    "type": "neighbor",
    "location": "121.416925,31.212617",
    "township": "周家桥街道"
  },
  {
    "street": "",
    "name": "沈家郎居委会",
    "addr": "长宁路1488弄20号",
    "phone": "52736164",
    "type": "neighbor",
    "location": "121.409328,31.218174",
    "township": "周家桥街道"
  },
  {
    "street": "",
    "name": "周一居委会",
    "addr": "万航渡路2505弄23号103室",
    "phone": "52739463",
    "type": "neighbor",
    "location": "121.406267,31.219550",
    "township": "周家桥街道"
  },
  {
    "street": "",
    "name": "周二居委会",
    "addr": "长宁路1447号底楼",
    "phone": "52734742",
    "type": "neighbor",
    "location": "121.409662,31.216883",
    "township": "周家桥街道"
  },
  {
    "street": "",
    "name": "杨家宅居委会",
    "addr": "玉屏南路560弄29号104室",
    "phone": "62599568",
    "type": "neighbor",
    "location": "121.401917,31.215641",
    "township": "周家桥街道"
  },
  {
    "street": "",
    "name": "锦屏居委会",
    "addr": "娄山关路969弄3号103室",
    "phone": "62597428",
    "type": "neighbor",
    "location": "121.404602,31.215330",
    "township": "周家桥街道"
  },
  {
    "street": "",
    "name": "古南居委会",
    "addr": "天山支路100弄4号103室",
    "phone": "62295443",
    "type": "neighbor",
    "location": "121.397987,31.215246",
    "township": "周家桥街道"
  },
  {
    "street": "",
    "name": "上海花城居委会",
    "addr": "长宁路1818弄4号102室",
    "phone": "52720416",
    "type": "neighbor",
    "location": "121.404313,31.218553",
    "township": "周家桥街道"
  },
  {
    "street": "",
    "name": "虹桥新城居委会",
    "addr": "长宁路1661弄20号304室",
    "phone": "52421164",
    "type": "neighbor",
    "location": "121.407048,31.217097",
    "township": "周家桥街道"
  },
  {
    "street": "",
    "name": "长宁新城居委会",
    "addr": "长宁路1188弄5楼二楼西侧",
    "phone": "52412634",
    "type": "neighbor",
    "location": "121.413853,31.217910",
    "township": "周家桥街道"
  },
  {
    "street": "",
    "name": "中山公寓居委会",
    "addr": "长宁路1277弄10号101室",
    "phone": "52411529",
    "type": "neighbor",
    "location": "121.412394,31.216201",
    "township": "周家桥街道"
  },
  {
    "street": "",
    "name": "大家源居委会",
    "addr": "万航渡路2088弄4号103室",
    "phone": "52414160",
    "type": "neighbor",
    "location": "121.411760,31.222124",
    "township": "周家桥街道"
  },
  {
    "street": "",
    "name": "虹桥万博花园居委会",
    "addr": "古北路69弄16号101室",
    "phone": "52721354",
    "type": "neighbor",
    "location": "121.399134,31.216806",
    "township": "周家桥街道"
  },
  {
    "street": "",
    "name": "春天花园居委会",
    "addr": "娄山关路999弄75号一楼",
    "phone": "52725787",
    "type": "neighbor",
    "location": "121.403466,31.217869",
    "township": "周家桥街道"
  },
  {
    "street": "",
    "name": "天山河畔花园居委会",
    "addr": "水城路883弄12号1楼",
    "phone": "62902936",
    "type": "neighbor",
    "location": "121.448211,31.222961",
    "township": "静安寺街道"
  },
  {
    "street": "",
    "name": "仁恒河滨花园居委会",
    "addr": "芙蓉江路388弄20号101室",
    "phone": "62743982",
    "type": "neighbor",
    "location": "121.393529,31.216765",
    "township": "周家桥街道"
  },
  {
    "street": "",
    "name": "天山华庭居委会",
    "addr": "威宁路458弄15号103室",
    "phone": "62082089",
    "type": "neighbor",
    "location": "121.386351,31.217151",
    "township": "周家桥街道"
  },
  {
    "street": "",
    "name": "新天地河滨花园居委会",
    "addr": "芙蓉江路555弄14号底楼",
    "phone": "32585096",
    "type": "neighbor",
    "location": "121.397386,31.216818",
    "township": "周家桥街道"
  },
  {
    "street": "天山路街道",
    "name": "天山二村居委会",
    "addr": "天山二村64号一楼",
    "phone": "62293386",
    "type": "neighbor",
    "location": "121.404708,31.209892",
    "township": "天山路街道"
  },
  {
    "street": "",
    "name": "天山三村居委会",
    "addr": "玉屏南路380弄120号102室",
    "phone": "62591135",
    "type": "neighbor",
    "location": "121.406731,31.213308",
    "township": "天山路街道"
  },
  {
    "street": "",
    "name": "天山四村居委会",
    "addr": "天山四村134号-1",
    "phone": "62286198",
    "type": "neighbor",
    "location": "121.402531,31.213070",
    "township": "天山路街道"
  },
  {
    "street": "",
    "name": "茅台居委会",
    "addr": "天山二村142号一楼",
    "phone": "62418442",
    "type": "neighbor",
    "location": "121.406349,31.207706",
    "township": "天山路街道"
  },
  {
    "street": "",
    "name": "仙霞居委会",
    "addr": "茅台路200弄号101-103室",
    "phone": "62590294",
    "type": "neighbor",
    "location": "121.401729,31.210023",
    "township": "天山路街道"
  },
  {
    "street": "",
    "name": "天山居委会",
    "addr": "娄山关路764弄16号104室",
    "phone": "62290912",
    "type": "neighbor",
    "location": "121.405227,31.211554",
    "township": "天山路街道"
  },
  {
    "street": "",
    "name": "天义居委会",
    "addr": "玉屏南路309号5室",
    "phone": "52310023",
    "type": "neighbor",
    "location": "121.407868,31.212859",
    "township": "天山路街道"
  },
  {
    "street": "",
    "name": "天支居委会",
    "addr": "天山支路67号—1临",
    "phone": "62736098",
    "type": "neighbor",
    "location": "121.397456,31.214419",
    "township": "天山路街道"
  },
  {
    "street": "",
    "name": "新光居委会",
    "addr": "玉屏南路537弄8号101室",
    "phone": "62298342",
    "type": "neighbor",
    "location": "121.403334,31.213735",
    "township": "天山路街道"
  },
  {
    "street": "",
    "name": "新风居委会",
    "addr": "玉屏南路723弄101室",
    "phone": "62334009",
    "type": "neighbor",
    "location": "121.409532,31.212619",
    "township": "天山路街道"
  },
  {
    "street": "",
    "name": "玉屏居委会",
    "addr": "中山路450号108室",
    "phone": "62592647",
    "type": "neighbor",
    "location": "121.751196,31.044293",
    "township": "惠南镇"
  },
  {
    "street": "",
    "name": "遵义居委会",
    "addr": "天山三村20号106室",
    "phone": "62596675",
    "type": "neighbor",
    "location": "121.408878,31.213713",
    "township": "天山路街道"
  },
  {
    "street": "",
    "name": "友谊居委会",
    "addr": "玉屏南路41弄11号102室",
    "phone": "62349131",
    "type": "neighbor",
    "location": "121.411436,31.211996",
    "township": "天山路街道"
  },
  {
    "street": "",
    "name": "紫云居委会",
    "addr": "紫云路367号二楼",
    "phone": "32502298",
    "type": "neighbor",
    "location": "121.408567,31.206000",
    "township": "天山路街道"
  },
  {
    "street": "",
    "name": "联建居委会",
    "addr": "联建新村11号楼上",
    "phone": "62416506",
    "type": "neighbor",
    "location": "121.409536,31.205520",
    "township": "天山路街道"
  },
  {
    "street": "",
    "name": "中紫居委会",
    "addr": "中山西路800弄53号102室",
    "phone": "62340273",
    "type": "neighbor",
    "location": "121.411013,31.207547",
    "township": "天山路街道"
  },
  {
    "street": "",
    "name": "延西居委会",
    "addr": "延安西路1740弄19号102室",
    "phone": "62080488",
    "type": "neighbor",
    "location": "121.416426,31.207069",
    "township": "天山路街道"
  },
  {
    "street": "",
    "name": "纺大居委会",
    "addr": "安顺路220弄12号103室",
    "phone": "62098477",
    "type": "neighbor",
    "location": "121.415885,31.201025",
    "township": "天山路街道"
  },
  {
    "street": "仙霞新村街道",
    "name": "天山五村一居委会",
    "addr": "天山路671号101-102室",
    "phone": "62598044",
    "type": "neighbor",
    "location": "121.397302,31.212413",
    "township": "仙霞新村街道"
  },
  {
    "street": "",
    "name": "天山五村三居委会",
    "addr": "茅台路270弄10号104、105室",
    "phone": "62738061",
    "type": "neighbor",
    "location": "121.398431,31.210262",
    "township": "仙霞新村街道"
  },
  {
    "street": "",
    "name": "芙蓉江路第一居委会",
    "addr": "芙蓉江路103弄26号101-103室",
    "phone": "62738172",
    "type": "neighbor",
    "location": "121.396313,31.208422",
    "township": "仙霞新村街道"
  },
  {
    "street": "",
    "name": "芙蓉江路第二居委会",
    "addr": "芙蓉江路150弄25号103室",
    "phone": "62592091",
    "type": "neighbor",
    "location": "121.394049,31.207927",
    "township": "仙霞新村街道"
  },
  {
    "street": "",
    "name": "大金更居委会",
    "addr": "古北路530弄30号101-104室",
    "phone": "62339058",
    "type": "neighbor",
    "location": "121.399160,31.208437",
    "township": "仙霞新村街道"
  },
  {
    "street": "",
    "name": "天原二村居委会",
    "addr": "天山路461弄18号104室",
    "phone": "62598225",
    "type": "neighbor",
    "location": "121.390272,31.212976",
    "township": "仙霞新村街道"
  },
  {
    "street": "",
    "name": "虹日居委会",
    "addr": "水城路45弄21支弄86号",
    "phone": "62425344",
    "type": "neighbor",
    "location": "121.390002,31.201936",
    "township": "仙霞新村街道"
  },
  {
    "street": "",
    "name": "虹古居委会",
    "addr": "水城路40弄4号102室",
    "phone": "62198551",
    "type": "neighbor",
    "location": "121.392486,31.202097",
    "township": "仙霞新村街道"
  },
  {
    "street": "",
    "name": "虹纺居委会",
    "addr": "虹古路377弄30支弄18号103-104室",
    "phone": "62429637",
    "type": "neighbor",
    "location": "121.388261,31.201840",
    "township": "仙霞新村街道"
  },
  {
    "street": "",
    "name": "虹霞居委会",
    "addr": "虹古路410弄5号103-104室",
    "phone": "62423664",
    "type": "neighbor",
    "location": "121.388563,31.204338",
    "township": "仙霞新村街道"
  },
  {
    "street": "",
    "name": "虹旭居委会",
    "addr": "虹古路417弄5号102-103室",
    "phone": "62623304",
    "type": "neighbor",
    "location": "121.386683,31.203591",
    "township": "仙霞新村街道"
  },
  {
    "street": "",
    "name": "虹仙居委会",
    "addr": "仙霞路750弄56号",
    "phone": "62627517",
    "type": "neighbor",
    "location": "121.384559,31.204433",
    "township": "仙霞新村街道"
  },
  {
    "street": "",
    "name": "锦苑居委会",
    "addr": "虹桥路1829弄36号",
    "phone": "62627271",
    "type": "neighbor",
    "location": "121.388171,31.199730",
    "township": "仙霞新村街道"
  },
  {
    "street": "",
    "name": "仙逸居委会",
    "addr": "水城路382弄14号",
    "phone": "62739970",
    "type": "neighbor",
    "location": "121.392599,31.206398",
    "township": "仙霞新村街道"
  },
  {
    "street": "",
    "name": "仙二居委会",
    "addr": "仙霞路432号105、106室",
    "phone": "62089269",
    "type": "neighbor",
    "location": "121.393838,31.205621",
    "township": "仙霞新村街道"
  },
  {
    "street": "",
    "name": "杜一居委会",
    "addr": "茅台路460弄2号103、104室",
    "phone": "62743386",
    "type": "neighbor",
    "location": "121.394120,31.210347",
    "township": "仙霞新村街道"
  },
  {
    "street": "",
    "name": "水霞居委会",
    "addr": "茅台路601弄36号",
    "phone": "62281904",
    "type": "neighbor",
    "location": "121.389049,31.208354",
    "township": "仙霞新村街道"
  },
  {
    "street": "",
    "name": "古宋居委会",
    "addr": "茅台路600弄22号",
    "phone": "62903267",
    "type": "neighbor",
    "location": "121.388174,31.211478",
    "township": "仙霞新村街道"
  },
  {
    "street": "",
    "name": "茅台新苑居委会",
    "addr": "茅台路455弄5号102－104室",
    "phone": "62338169",
    "type": "neighbor",
    "location": "121.394960,31.209007",
    "township": "仙霞新村街道"
  },
  {
    "street": "",
    "name": "威宁居委会",
    "addr": "茅台路691弄1号102、103室",
    "phone": "62908543",
    "type": "neighbor",
    "location": "121.387165,31.210322",
    "township": "仙霞新村街道"
  },
  {
    "street": "",
    "name": "茅台花苑居委会",
    "addr": "虹古路208弄25号101、102室",
    "phone": "62709569",
    "type": "neighbor",
    "location": "121.394088,31.204812",
    "township": "仙霞新村街道"
  },
  {
    "street": "",
    "name": "安龙居委会",
    "addr": "茅台路500弄2号101-102室",
    "phone": "62346080",
    "type": "neighbor",
    "location": "121.391962,31.210389",
    "township": "仙霞新村街道"
  },
  {
    "street": "",
    "name": "",
    "addr": "安龙路929弄12号102室",
    "phone": "62900272",
    "type": "neighbor",
    "location": "121.386372,31.212218",
    "township": "仙霞新村街道"
  },
  {
    "street": "虹桥街道",
    "name": "安东居委会",
    "addr": "安顺路181弄11号101-104室",
    "phone": "22850960",
    "type": "neighbor",
    "location": "121.418537,31.200900",
    "township": "虹桥街道"
  },
  {
    "street": "",
    "name": "何家角居委会",
    "addr": "长顺路105号",
    "phone": "22850966",
    "type": "neighbor",
    "location": "121.417171,31.200673",
    "township": "虹桥街道"
  },
  {
    "street": "",
    "name": "长顺居委会",
    "addr": "虹桥路959弄12号101室",
    "phone": "22850964",
    "type": "neighbor",
    "location": "121.419078,31.196914",
    "township": "虹桥街道"
  },
  {
    "street": "",
    "name": "新顺居委会",
    "addr": "长顺路34弄9-10号",
    "phone": "22850963",
    "type": "neighbor",
    "location": "121.418711,31.197840",
    "township": "虹桥街道"
  },
  {
    "street": "",
    "name": "长虹居委会",
    "addr": "虹桥路966弄5号101室",
    "phone": "22850968",
    "type": "neighbor",
    "location": "121.420687,31.193500",
    "township": "虹桥街道"
  },
  {
    "street": "",
    "name": "虹南居委会",
    "addr": "中山西路1432弄37号102室",
    "phone": "22850972",
    "type": "neighbor",
    "location": "121.417456,31.191914",
    "township": "虹桥街道"
  },
  {
    "street": "",
    "name": "虹桥居委会",
    "addr": "虹桥路1077弄20号103室",
    "phone": "22850978",
    "type": "neighbor",
    "location": "121.412021,31.197451",
    "township": "虹桥街道"
  },
  {
    "street": "",
    "name": "爱建居委会",
    "addr": "安顺路351弄40号105室",
    "phone": "22850982",
    "type": "neighbor",
    "location": "121.409112,31.199114",
    "township": "虹桥街道"
  },
  {
    "street": "",
    "name": "伊犁居委会",
    "addr": "伊犁路134弄23号102室",
    "phone": "22850984",
    "type": "neighbor",
    "location": "121.408778,31.201032",
    "township": "虹桥街道"
  },
  {
    "street": "",
    "name": "虹储居委会",
    "addr": "虹桥路1041弄48号101室",
    "phone": "22850980",
    "type": "neighbor",
    "location": "121.411970,31.198973",
    "township": "虹桥街道"
  },
  {
    "street": "",
    "name": "虹许居委会",
    "addr": "张虹路90弄2号101室",
    "phone": "22850986",
    "type": "neighbor",
    "location": "121.412544,31.192485",
    "township": "虹桥街道"
  },
  {
    "street": "",
    "name": "虹梅居委会",
    "addr": "虹许路815弄2号103室",
    "phone": "22850988",
    "type": "neighbor",
    "location": "121.389530,31.191940",
    "township": "虹桥街道"
  },
  {
    "street": "",
    "name": "荣华居委会",
    "addr": "水城南路51弄1号102室（一期） 黄金城道258弄2号楼D1（二期） 御翠豪庭红宝石路古北路口）（三期）",
    "phone": "22850990 22850992 22850994",
    "type": "neighbor",
    "location": "121.399519,31.197585",
    "township": "虹桥街道"
  },
  {
    "street": "",
    "name": "虹东居委会",
    "addr": "虹桥路1017弄5号103室",
    "phone": "22850976",
    "type": "neighbor",
    "location": "121.413546,31.196887",
    "township": "虹桥街道"
  },
  {
    "street": "",
    "name": "中山居委会",
    "addr": "虹桥路996弄28号101室",
    "phone": "22850970",
    "type": "neighbor",
    "location": "121.419815,31.194966",
    "township": "虹桥街道"
  },
  {
    "street": "",
    "name": "虹欣居委会",
    "addr": "中山西路1410弄22号",
    "phone": "22850974",
    "type": "neighbor",
    "location": "121.417433,31.192664",
    "township": "虹桥街道"
  },
  {
    "street": "程家桥街道",
    "name": "程桥一村居委会",
    "addr": "程桥一村9号101-103室",
    "phone": "22300091",
    "type": "neighbor",
    "location": "121.370990,31.191281",
    "township": "程家桥街道"
  },
  {
    "street": "",
    "name": "程桥二村居委会",
    "addr": "程桥二村82号102-104室",
    "phone": "22300042",
    "type": "neighbor",
    "location": "121.375295,31.190280",
    "township": "程家桥街道"
  },
  {
    "street": "",
    "name": "宝北居委会",
    "addr": "程家桥路80弄5号",
    "phone": "22300094",
    "type": "neighbor",
    "location": "121.372020,31.188756",
    "township": "程家桥街道"
  },
  {
    "street": "",
    "name": "机场新村居委会",
    "addr": "机场新村97号101、102室",
    "phone": "22300095",
    "type": "neighbor",
    "location": "121.354126,31.183910",
    "township": "程家桥街道"
  },
  {
    "street": "",
    "name": "王满泗桥居委会",
    "addr": "哈密路1800弄23号101-105室",
    "phone": "22300093",
    "type": "neighbor",
    "location": "121.370935,31.195807",
    "township": "新泾镇"
  },
  {
    "street": "",
    "name": "南龚居委会",
    "addr": "虹桥路222弄22号",
    "phone": "22300096",
    "type": "neighbor",
    "location": "121.437820,31.194889",
    "township": "徐家汇街道"
  },
  {
    "street": "",
    "name": "上航新村居委会",
    "addr": "上航新村333号101室",
    "phone": "22300097",
    "type": "neighbor",
    "location": "121.355960,31.184219",
    "township": "程家桥街道"
  },
  {
    "street": "",
    "name": "嘉利豪园居委会",
    "addr": "虹井路888弄14号裙楼",
    "phone": "62683269",
    "type": "neighbor",
    "location": "121.368809,31.188136",
    "township": "程家桥街道"
  },
  {
    "street": "北新泾街道",
    "name": "新泾一村一居委会",
    "addr": "新泾一村210号101-102室",
    "phone": "52184347",
    "type": "neighbor",
    "location": "121.371069,31.219006",
    "township": "北新泾街道"
  },
  {
    "street": "",
    "name": "新泾一村二居委会",
    "addr": "剑河路254号",
    "phone": "52187538",
    "type": "neighbor",
    "location": "121.368606,31.218433",
    "township": "北新泾街道"
  },
  {
    "street": "",
    "name": "新泾二村居委会",
    "addr": "新泾二村37号101-102室",
    "phone": "52188441",
    "type": "neighbor",
    "location": "121.373994,31.215543",
    "township": "北新泾街道"
  },
  {
    "street": "",
    "name": "新泾三村居委会",
    "addr": "新泾三村10号102室",
    "phone": "52195264",
    "type": "neighbor",
    "location": "121.369276,31.215701",
    "township": "北新泾街道"
  },
  {
    "street": "",
    "name": "新泾四村居委会",
    "addr": "天山西路351弄2号",
    "phone": "62396806",
    "type": "neighbor",
    "location": "121.366427,31.217119",
    "township": "北新泾街道"
  },
  {
    "street": "",
    "name": "新泾五村居委会",
    "addr": "天山西路350弄55号106室",
    "phone": "52600723",
    "type": "neighbor",
    "location": "121.366505,31.219140",
    "township": "北新泾街道"
  },
  {
    "street": "",
    "name": "新泾六村居委会",
    "addr": "金钟路34036号101-102室",
    "phone": "52188704",
    "type": "neighbor",
    "location": "121.362839,31.219071",
    "township": "北新泾街道"
  },
  {
    "street": "",
    "name": "新泾七村居委会",
    "addr": "金钟路333弄68号",
    "phone": "52188679",
    "type": "neighbor",
    "location": "121.362133,31.219557",
    "township": "北新泾街道"
  },
  {
    "street": "",
    "name": "新泾八村居委会",
    "addr": "新渔路400弄13号102室",
    "phone": "52600724",
    "type": "neighbor",
    "location": "121.363855,31.216789",
    "township": "北新泾街道"
  },
  {
    "street": "",
    "name": "北翟路居委会",
    "addr": "金钟路428弄26号102-103室",
    "phone": "52181255",
    "type": "neighbor",
    "location": "121.364028,31.220705",
    "township": "北新泾街道"
  },
  {
    "street": "",
    "name": "蒲松北路居委会",
    "addr": "北渔路28弄9号201室",
    "phone": "32525027",
    "type": "neighbor",
    "location": "121.373036,31.218117",
    "township": "北新泾街道"
  },
  {
    "street": "",
    "name": "哈密新村居委会",
    "addr": "哈密路16号",
    "phone": "62330150",
    "type": "neighbor",
    "location": "121.375428,31.213261",
    "township": "新泾镇"
  },
  {
    "street": "",
    "name": "元丰花园居委会",
    "addr": "天山路88弄15号101室",
    "phone": "32505238",
    "type": "neighbor",
    "location": "121.378796,31.217532",
    "township": "北新泾街道"
  },
  {
    "street": "",
    "name": "金平居委会",
    "addr": "淞虹路128弄5号",
    "phone": "52161940",
    "type": "neighbor",
    "location": "121.361414,31.221823",
    "township": "北新泾街道"
  },
  {
    "street": "",
    "name": "剑河家苑居委会",
    "addr": "金钟路68弄27号104室",
    "phone": "62415675",
    "type": "neighbor",
    "location": "121.368827,31.221108",
    "township": "北新泾街道"
  },
  {
    "street": "新泾镇",
    "name": "刘家宅一居委会",
    "addr": "剑河路409弄19号101室",
    "phone": "52170899",
    "type": "neighbor",
    "location": "121.367221,31.214680",
    "township": "新泾镇"
  },
  {
    "street": "",
    "name": "刘家宅二居委会",
    "addr": "剑河路414弄16号203室",
    "phone": "52177052",
    "type": "neighbor",
    "location": "121.368318,31.213586",
    "township": "新泾镇"
  },
  {
    "street": "",
    "name": "刘家宅三居委会",
    "addr": "泉口路109弄98号",
    "phone": "52179748",
    "type": "neighbor",
    "location": "121.370783,31.211286",
    "township": "新泾镇"
  },
  {
    "street": "",
    "name": "刘家宅四居委会",
    "addr": "泉口路185弄113号",
    "phone": "52173584",
    "type": "neighbor",
    "location": "121.366384,31.211916",
    "township": "新泾镇"
  },
  {
    "street": "",
    "name": "福泉路居委会",
    "addr": "福泉路123弄14号",
    "phone": "62386910",
    "type": "neighbor",
    "location": "121.358091,31.215091",
    "township": "新泾镇"
  },
  {
    "street": "",
    "name": "淮阴路居委会",
    "addr": "淮阴路575弄17号101室",
    "phone": "62912090",
    "type": "neighbor",
    "location": "121.372321,31.205395",
    "township": "新泾镇"
  },
  {
    "street": "",
    "name": "淞虹二居委会",
    "addr": "剑河路599弄107号底楼",
    "phone": "52204736",
    "type": "neighbor",
    "location": "121.368640,31.206218",
    "township": "新泾镇"
  },
  {
    "street": "",
    "name": "淞虹三居委会",
    "addr": "平塘路710号",
    "phone": "52171800",
    "type": "neighbor",
    "location": "121.365664,31.206606",
    "township": "新泾镇"
  },
  {
    "street": "",
    "name": "淞虹四居委会",
    "addr": "淞虹路735弄18号",
    "phone": "52170964",
    "type": "neighbor",
    "location": "121.362084,31.208916",
    "township": "新泾镇"
  },
  {
    "street": "",
    "name": "淞虹五居委会",
    "addr": "协和路198号",
    "phone": "52203976",
    "type": "neighbor",
    "location": "121.357494,31.208763",
    "township": "新泾镇"
  },
  {
    "street": "",
    "name": "华松居委会",
    "addr": "仙霞西路700弄72号",
    "phone": "52178327",
    "type": "neighbor",
    "location": "121.357275,31.210658",
    "township": "新泾镇"
  },
  {
    "street": "",
    "name": "曙光居委会",
    "addr": "仙霞路888弄10号甲",
    "phone": "62425123",
    "type": "neighbor",
    "location": "121.381669,31.207162",
    "township": "新泾镇"
  },
  {
    "street": "",
    "name": "屈家桥居委会",
    "addr": "北翟路980弄86号103-104室",
    "phone": "52170002",
    "type": "neighbor",
    "location": "121.357822,31.225874",
    "township": "新泾镇"
  },
  {
    "street": "",
    "name": "绿园一村居委会",
    "addr": "淞虹路685弄108号一楼",
    "phone": "52204017",
    "type": "neighbor",
    "location": "121.359601,31.214104",
    "township": "新泾镇"
  },
  {
    "street": "",
    "name": "绿园新村五居委会",
    "addr": "淞虹路1005弄7号101-102室",
    "phone": "52202453",
    "type": "neighbor",
    "location": "121.363946,31.202918",
    "township": "新泾镇"
  },
  {
    "street": "",
    "name": "绿园新村八居委会",
    "addr": "协和路239弄24号二楼",
    "phone": "52209105",
    "type": "neighbor",
    "location": "121.355211,31.212448",
    "township": "新泾镇"
  },
  {
    "street": "",
    "name": "绿园新村十一居委会",
    "addr": "福泉路435弄127号二楼",
    "phone": "52201421",
    "type": "neighbor",
    "location": "121.358886,31.205140",
    "township": "新泾镇"
  },
  {
    "street": "",
    "name": "绿园新村十二居委会",
    "addr": "福泉路495弄11号102室",
    "phone": "52201167",
    "type": "neighbor",
    "location": "121.359185,31.202981",
    "township": "新泾镇"
  },
  {
    "street": "",
    "name": "北虹居委会",
    "addr": "北虹路1000弄17号",
    "phone": "62907097",
    "type": "neighbor",
    "location": "121.377990,31.213606",
    "township": "新泾镇"
  },
  {
    "street": "",
    "name": "程桥居委会",
    "addr": "剑河路2001弄51号101室",
    "phone": "62611963",
    "type": "neighbor",
    "location": "121.370481,31.194761",
    "township": "新泾镇"
  },
  {
    "street": "",
    "name": "中泾居委会",
    "addr": "中泾路18弄16号101室",
    "phone": "52186196",
    "type": "neighbor",
    "location": "121.364842,31.199760",
    "township": "新泾镇"
  },
  {
    "street": "",
    "name": "林泉居委会",
    "addr": "仙霞路1225弄110号302室",
    "phone": "62905527",
    "type": "neighbor",
    "location": "121.376303,31.210146",
    "township": "新泾镇"
  },
  {
    "street": "",
    "name": "双流路居委会",
    "addr": "天山路288弄18号101室",
    "phone": "62913074",
    "type": "neighbor",
    "location": "121.385208,31.216710",
    "township": "新泾镇"
  },
  {
    "street": "",
    "name": "新渔东路居委会",
    "addr": "新渔东路550弄4号201室",
    "phone": "62901927",
    "type": "neighbor",
    "location": "121.383429,31.212665",
    "township": "新泾镇"
  },
  {
    "street": "",
    "name": "定威路居委会",
    "addr": "广顺路32弄40号",
    "phone": "52182567",
    "type": "neighbor",
    "location": "121.352647,31.215632",
    "township": "新泾镇"
  },
  {
    "street": "",
    "name": "虹园新村九居委会",
    "addr": "平塘路415弄38号",
    "phone": "52201023",
    "type": "neighbor",
    "location": "121.363520,31.214689",
    "township": "新泾镇"
  },
  {
    "street": "",
    "name": "平塘居委会",
    "addr": "淞虹路650弄56号二楼",
    "phone": "52205656",
    "type": "neighbor",
    "location": "121.362075,31.212104",
    "township": "新泾镇"
  },
  {
    "street": "",
    "name": "虹康居委会",
    "addr": "仙霞西路500弄53号101室",
    "phone": "52207110",
    "type": "neighbor",
    "location": "121.363175,31.210547",
    "township": "新泾镇"
  },
  {
    "street": "",
    "name": "南洋新都居委会",
    "addr": "双流路54弄4号101室",
    "phone": "62915426",
    "type": "neighbor",
    "location": "121.380788,31.212135",
    "township": "新泾镇"
  },
  {
    "street": "",
    "name": "新泾居委会",
    "addr": "仙霞西路885弄76号二楼",
    "phone": "32526001",
    "type": "neighbor",
    "location": "121.350753,31.207281",
    "township": "新泾镇"
  },
  {
    "street": "",
    "name": "怡景苑居委会",
    "addr": "威宁路511弄5号101室",
    "phone": "32511655",
    "type": "neighbor",
    "location": "121.384382,31.217692",
    "township": "新泾镇"
  },
  {
    "street": "",
    "name": "天山星城居委会",
    "addr": "威宁路358弄3号101室",
    "phone": "52382320",
    "type": "neighbor",
    "location": "121.386917,31.212978",
    "township": "新泾镇"
  },
  {
    "street": "",
    "name": "新泾北苑居委会",
    "addr": "仙霞西路88弄16号三楼",
    "phone": "62396776",
    "type": "neighbor",
    "location": "121.370857,31.208992",
    "township": "新泾镇"
  },
  {
    "name": "长宁区党建服务中心",
    "addr": "长宁路878号（中山公园内）",
    "phone": "62307286/22051007--施坚志",
    "type": "partybuild",
    "location": "121.419045,31.221631",
    "township": "华阳路街道"
  },
  {
    "name": "新华路街道社区党建服务中心",
    "addr": "法华镇路453号1楼",
    "phone": "52540749--戴剑英",
    "type": "partybuild",
    "location": "121.427008,31.204622",
    "township": "新华路街道"
  },
  {
    "name": "华阳路街道社区党建服务中心",
    "addr": "安化路500号1楼",
    "phone": "62133228--费佳莉",
    "type": "partybuild",
    "location": "121.420187,31.215878",
    "township": "华阳路街道"
  },
  {
    "name": "江苏路街道社区党建服务中心",
    "addr": "江苏路563弄8号2楼",
    "phone": "62257717--刘莹",
    "type": "partybuild",
    "location": "121.433126,31.215805",
    "township": "江苏路街道"
  },
  {
    "name": "周家桥街道社区党建服务中心",
    "addr": "长宁路1488弄6号6楼",
    "phone": "52734312--吴咏梅",
    "type": "partybuild",
    "location": "121.409297,31.217949",
    "township": "周家桥街道"
  },
  {
    "name": "天山路街道社区党建服务中心",
    "addr": "天山四村122号3号楼3楼",
    "phone": "62333791--于娜",
    "type": "partybuild",
    "location": "121.402550,31.212596",
    "township": "天山路街道"
  },
  {
    "name": "虹桥街道社区党建服务中心",
    "addr": "虹桥路1157号6楼",
    "phone": "62084765--李静静",
    "type": "partybuild",
    "location": "121.409211,31.197175",
    "township": "虹桥街道"
  },
  {
    "name": "仙霞新村街道社区党建服务中心",
    "addr": "茅台路298号2楼",
    "phone": "62336100--王晓雁",
    "type": "partybuild",
    "location": "121.398193,31.209905",
    "township": "仙霞新村街道"
  },
  {
    "name": "程家桥街道社区党建服务中心",
    "addr": "虹桥路2282号3楼",
    "phone": "22300150--夏怡文",
    "type": "partybuild",
    "location": "121.375014,31.191241",
    "township": "程家桥街道"
  },
  {
    "name": "北新泾街道社区党建服务中心",
    "addr": "西陶浜路33弄4号",
    "phone": "52190377--林为",
    "type": "partybuild",
    "location": "121.362597,31.221787",
    "township": "北新泾街道"
  },
  {
    "name": "新泾镇社区党建服务中心",
    "addr": "泉口路17号",
    "phone": "52187114--张怡慧",
    "type": "partybuild",
    "location": "121.376087,31.210319",
    "township": "新泾镇"
  },
  {
    "name": "万村居民区党建服务站",
    "addr": "镇宁路465弄112号",
    "phone": "62513080--",
    "type": "partybuild",
    "location": "121.433662,31.222841",
    "township": "江苏路街道"
  },
  {
    "name": "哈密居民区党建服务点",
    "addr": "哈密路16号",
    "phone": "62908560--",
    "type": "partybuild",
    "location": "121.375428,31.213261",
    "township": "新泾镇"
  },
  {
    "name": "元丰花园居民区党建服务站",
    "addr": "天山路88弄15号",
    "phone": "32505238--",
    "type": "partybuild",
    "location": "121.378796,31.217532",
    "township": "北新泾街道"
  },
  {
    "name": "万宝国际广场党建服务点",
    "addr": "延安西路500号",
    "phone": "32119999--",
    "type": "partybuild",
    "location": "121.436525,31.217646",
    "township": "江苏路街道"
  },
  {
    "name": "新虹桥大厦党建服务点",
    "addr": "娄山关路55号",
    "phone": "62754502--",
    "type": "partybuild",
    "location": "121.402682,31.202907",
    "township": "虹桥街道"
  },
  {
    "name": "华闻国际大厦党建服务点",
    "addr": "中山西路999号",
    "phone": "62084765--",
    "type": "partybuild",
    "location": "121.414493,31.199483",
    "township": "虹桥街道"
  },
  {
    "name": "虹桥商务大厦党建服务点",
    "addr": "虹桥路2272号",
    "phone": "--",
    "type": "partybuild",
    "location": "121.375924,31.191282",
    "township": "程家桥街道"
  },
  {
    "name": "宜嘉坊商务楼党建服务点",
    "addr": "天山西路155号",
    "phone": "52161008--",
    "type": "partybuild",
    "location": "121.373176,31.216449",
    "township": "北新泾街道"
  },
  {
    "name": "天山大厦党建服务点",
    "addr": "天山路30号",
    "phone": "52060686--",
    "type": "partybuild",
    "location": "121.379410,31.216193",
    "township": "北新泾街道"
  },
  {
    "name": "兆益科技园党建服务点",
    "addr": "天山路8号",
    "phone": "33536788--",
    "type": "partybuild",
    "location": "121.377752,31.216406",
    "township": "北新泾街道"
  },
  {
    "name": "慧山科技园党建服务点",
    "addr": "长宁路3333号",
    "phone": "62381979--",
    "type": "partybuild",
    "location": "121.378451,31.219323",
    "township": "北新泾街道"
  },
  {
    "name": "时尚园党建服务点",
    "addr": "北翟路163弄30号",
    "phone": "62396878--",
    "type": "partybuild",
    "location": "121.323649,31.221445",
    "township": "新虹街道"
  },
  {
    "name": "海益商务大厦党建服务点",
    "addr": "天山路310号",
    "phone": "62917051--",
    "type": "partybuild",
    "location": "121.384810,31.215774",
    "township": "新泾镇"
  },
  {
    "name": "光华大厦党建服务点",
    "addr": "茅台路868号",
    "phone": "32087858--",
    "type": "partybuild",
    "location": "121.383346,31.211370",
    "township": "新泾镇"
  },
  {
    "name": "天瑞大厦党建服务点",
    "addr": "双流路31号",
    "phone": "33608553--",
    "type": "partybuild",
    "location": "121.380043,31.211971",
    "township": "新泾镇"
  },
  {
    "name": "福泉居民区党建服务站",
    "addr": "福泉路123弄14号",
    "phone": "62386910--",
    "type": "partybuild",
    "location": "121.358091,31.215091",
    "township": "新泾镇"
  },
  {
    "name": "定威居民区党建服务站",
    "addr": "广顺路32弄40号",
    "phone": "52182567--",
    "type": "partybuild",
    "location": "121.352647,31.215632",
    "township": "新泾镇"
  },
  {
    "name": "绿地商务大厦党建服务点",
    "addr": "安西路45号",
    "phone": "62139090--",
    "type": "partybuild",
    "location": "121.425740,31.219631",
    "township": "江苏路街道"
  },
  {
    "name": "岐山居民区党建服务站",
    "addr": "愚园路1032弄61号",
    "phone": "62524194--",
    "type": "partybuild",
    "location": "121.429659,31.219724",
    "township": "江苏路街道"
  },
  {
    "name": "愚三居民区党建服务站",
    "addr": "安西路23弄20号",
    "phone": "62525250--",
    "type": "partybuild",
    "location": "121.425750,31.221083",
    "township": "江苏路街道"
  },
  {
    "name": "长新居民区党建服务站",
    "addr": "长宁路491弄31号",
    "phone": "62512563--",
    "type": "partybuild",
    "location": "121.426927,31.221833",
    "township": "江苏路街道"
  },
  {
    "name": "江苏居民区党建服务站",
    "addr": "愚园路718弄33号",
    "phone": "62523377--",
    "type": "partybuild",
    "location": "121.434967,31.221072",
    "township": "江苏路街道"
  },
  {
    "name": "东浜居民区党建服务站",
    "addr": "东诸安浜路158弄2号",
    "phone": "62521210--",
    "type": "partybuild",
    "location": "121.433412,31.218397",
    "township": "江苏路街道"
  },
  {
    "name": "南汪居民区党建服务站",
    "addr": "延安西路649弄68号",
    "phone": "62525855--",
    "type": "partybuild",
    "location": "121.434927,31.214953",
    "township": "江苏路街道"
  },
  {
    "name": "北汪居民区党建服务站",
    "addr": "东诸安浜路59号103室",
    "phone": "62521752--",
    "type": "partybuild",
    "location": "121.435793,31.218307",
    "township": "江苏路街道"
  },
  {
    "name": "曹家堰居民区党建服务站",
    "addr": "昭化东路102号二楼",
    "phone": "62525948--",
    "type": "partybuild",
    "location": "121.435923,31.214002",
    "township": "江苏路街道"
  },
  {
    "name": "华山居民区党建服务站",
    "addr": "华山路894弄1号103室",
    "phone": "62100255--",
    "type": "partybuild",
    "location": "121.438456,31.212593",
    "township": "江苏路街道"
  },
  {
    "name": "西浜居民区党建服务站",
    "addr": "西诸安浜路435弄3号101室",
    "phone": "62525285--",
    "type": "partybuild",
    "location": "121.428603,31.216509",
    "township": "江苏路街道"
  },
  {
    "name": "福世居民区党建服务站",
    "addr": "宣化路227号101室",
    "phone": "62520842--",
    "type": "partybuild",
    "location": "121.425820,31.217051",
    "township": "江苏路街道"
  },
  {
    "name": "虹欣居民区党建服务站",
    "addr": "中山西路1410弄22号",
    "phone": "32091808--",
    "type": "partybuild",
    "location": "121.417433,31.192664",
    "township": "虹桥街道"
  },
  {
    "name": "虹东居民区党建服务站",
    "addr": "虹桥路1017弄5号103室",
    "phone": "62088941--",
    "type": "partybuild",
    "location": "121.413546,31.196887",
    "township": "虹桥街道"
  },
  {
    "name": "虹桥居民区党建服务站",
    "addr": "虹桥路1077弄20号103室",
    "phone": "62752446--",
    "type": "partybuild",
    "location": "121.412021,31.197451",
    "township": "虹桥街道"
  },
  {
    "name": "虹许居民区党建服务站",
    "addr": "张虹路90弄2号",
    "phone": "62083475--",
    "type": "partybuild",
    "location": "121.412544,31.192485",
    "township": "虹桥街道"
  },
  {
    "name": "中山居民区党建服务站",
    "addr": "虹桥路996弄28号101室",
    "phone": "32098361--",
    "type": "partybuild",
    "location": "121.419815,31.194966",
    "township": "虹桥街道"
  },
  {
    "name": "长顺居民区党建服务站",
    "addr": "虹桥路959弄12号102室",
    "phone": "62095766--",
    "type": "partybuild",
    "location": "121.419078,31.196914",
    "township": "虹桥街道"
  },
  {
    "name": "长虹居民区党建服务站",
    "addr": "虹桥路996弄5号101室",
    "phone": "32094431--",
    "type": "partybuild",
    "location": "121.421212,31.195264",
    "township": "虹桥街道"
  },
  {
    "name": "辽油大厦党建服务点",
    "addr": "定西路1100号",
    "phone": "62518598--",
    "type": "partybuild",
    "location": "121.423511,31.211777",
    "township": "华阳路街道"
  },
  {
    "name": "新长宁商务楼党建服务点",
    "addr": "武夷路238号",
    "phone": "62124709--",
    "type": "partybuild",
    "location": "121.425999,31.213263",
    "township": "华阳路街道"
  },
  {
    "name": "大众金融大厦党建服务点",
    "addr": "延安西路1023号",
    "phone": "62261575--",
    "type": "partybuild",
    "location": "121.429608,31.212320",
    "township": "华阳路街道"
  },
  {
    "name": "华宁国际广场党建服务点",
    "addr": "宣化路300号",
    "phone": "32528000--",
    "type": "partybuild",
    "location": "121.422749,31.217508",
    "township": "华阳路街道"
  },
  {
    "name": "武夷商务中心党建服务点",
    "addr": "武夷路333号",
    "phone": "62109205--",
    "type": "partybuild",
    "location": "121.424135,31.213384",
    "township": "华阳路街道"
  },
  {
    "name": "铭光商务楼党建服务点",
    "addr": "昭化路51号",
    "phone": "51180138--",
    "type": "partybuild",
    "location": "121.424912,31.211940",
    "township": "华阳路街道"
  },
  {
    "name": "武夷坊党建服务点",
    "addr": "定西路1118号",
    "phone": "62401813--",
    "type": "partybuild",
    "location": "121.423400,31.212136",
    "township": "华阳路街道"
  },
  {
    "name": "中澳万众商务大厦党建服务点",
    "addr": "延安西路1303号",
    "phone": "62106570--",
    "type": "partybuild",
    "location": "121.426041,31.210552",
    "township": "华阳路街道"
  },
  {
    "name": "银统大厦北楼党建服务点",
    "addr": "定西路1016号",
    "phone": "62400102--",
    "type": "partybuild",
    "location": "121.423835,31.210906",
    "township": "华阳路街道"
  },
  {
    "name": "大盈商务楼党建服务点",
    "addr": "定西路1232号",
    "phone": "62511771--",
    "type": "partybuild",
    "location": "121.422966,31.214341",
    "township": "华阳路街道"
  },
  {
    "name": "银统大厦南楼党建服务点",
    "addr": "定西路988号",
    "phone": "62119769--",
    "type": "partybuild",
    "location": "121.423905,31.210375",
    "township": "华阳路街道"
  },
  {
    "name": "王满居民区党建服务站",
    "addr": "哈密路1800弄23号101室",
    "phone": "22300093--",
    "type": "partybuild",
    "location": "121.370935,31.195807",
    "township": "新泾镇"
  },
  {
    "name": "芙蓉江电脑城党建服务点",
    "addr": "天山支路209号",
    "phone": "--",
    "type": "partybuild",
    "location": "121.395962,31.213591",
    "township": "天山路街道"
  },
  {
    "name": "紫云居民区党建服务站",
    "addr": "天山路1761弄1支弄1号",
    "phone": "62590269--",
    "type": "partybuild",
    "location": "121.409381,31.208444",
    "township": "天山路街道"
  },
  {
    "name": "建宁居民区党建服务站",
    "addr": "定西路1310弄8号108室",
    "phone": "52376510--",
    "type": "partybuild",
    "location": "121.422797,31.216810",
    "township": "华阳路街道"
  },
  {
    "name": "飞乐居民区党建服务站",
    "addr": "昭化路83号",
    "phone": "52376582--",
    "type": "partybuild",
    "location": "121.428218,31.212520",
    "township": "华阳路街道"
  },
  {
    "name": "潘东居民区党建服务站",
    "addr": "武夷路337弄25号",
    "phone": "52376522--",
    "type": "partybuild",
    "location": "121.423926,31.213584",
    "township": "华阳路街道"
  },
  {
    "name": "姚家角居民区党建服务站",
    "addr": "愚园路1423弄84号",
    "phone": "52376530--",
    "type": "partybuild",
    "location": "121.422019,31.218434",
    "township": "华阳路街道"
  },
  {
    "name": "徐家宅居民区党建服务站",
    "addr": "昭化路60弄1号",
    "phone": "52376529--",
    "type": "partybuild",
    "location": "121.428950,31.212441",
    "township": "华阳路街道"
  },
  {
    "name": "兆仪大楼党建服务点",
    "addr": "定西路1281号旁楼",
    "phone": "--",
    "type": "partybuild",
    "location": "121.422308,31.215624",
    "township": "华阳路街道"
  },
  {
    "name": "长峰大楼党建服务点",
    "addr": "定西路1277号",
    "phone": "52376536--",
    "type": "partybuild",
    "location": "121.421614,31.215500",
    "township": "华阳路街道"
  },
  {
    "name": "陶家宅居民区党建服务站",
    "addr": "昭化路518弄13号105室",
    "phone": "52376531--",
    "type": "partybuild",
    "location": "121.420407,31.210787",
    "township": "华阳路街道"
  },
  {
    "name": "天诚居民区党建服务站",
    "addr": "武夷路416弄1号102室",
    "phone": "52376532--",
    "type": "partybuild",
    "location": "121.422014,31.212554",
    "township": "华阳路街道"
  },
  {
    "name": "潘中居民区党建服务站",
    "addr": "定西路1235弄7号",
    "phone": "52376513--",
    "type": "partybuild",
    "location": "121.422511,31.214344",
    "township": "华阳路街道"
  },
  {
    "name": "上海时尚园党建服务点",
    "addr": "天山路1718号",
    "phone": "32111199--",
    "type": "partybuild",
    "location": "121.408793,31.210905",
    "township": "天山路街道"
  },
  {
    "name": "太平洋中心党建服务点",
    "addr": "延安西路889号",
    "phone": "62268888--",
    "type": "partybuild",
    "location": "121.432414,31.214772",
    "township": "江苏路街道"
  },
  {
    "name": "申亚金融广场党建服务点",
    "addr": "延安西路895号",
    "phone": "62252488--",
    "type": "partybuild",
    "location": "121.432291,31.214563",
    "township": "江苏路街道"
  },
  {
    "name": "裕丰大厦党建服务点",
    "addr": "延安西路777号",
    "phone": "55123855--",
    "type": "partybuild",
    "location": "121.434646,31.214075",
    "township": "江苏路街道"
  },
  {
    "name": "中西大厦党建服务点",
    "addr": "江苏路121号",
    "phone": "13301631060--",
    "type": "partybuild",
    "location": "121.429469,31.222920",
    "township": "江苏路街道"
  },
  {
    "name": "范北居民区党建服务站",
    "addr": "长宁路1302弄73支弄10号105室",
    "phone": "52722591--",
    "type": "partybuild",
    "location": "121.413611,31.220332",
    "township": "周家桥街道"
  },
  {
    "name": "中四居民区党建服务站",
    "addr": "长宁路1135弄三泾北宅23号101室",
    "phone": "62748808--",
    "type": "partybuild",
    "location": "121.415242,31.214419",
    "township": "周家桥街道"
  },
  {
    "name": "武夷居民区党建服务站",
    "addr": "武夷路700弄1号103室",
    "phone": "33606326--",
    "type": "partybuild",
    "location": "121.416925,31.212617",
    "township": "周家桥街道"
  },
  {
    "name": "沈家郎居民区党建服务站",
    "addr": "长宁路1488弄20号",
    "phone": "52736164--",
    "type": "partybuild",
    "location": "121.409328,31.218174",
    "township": "周家桥街道"
  },
  {
    "name": "西一居民区党建服务站",
    "addr": "安化路458号",
    "phone": "62524724--",
    "type": "partybuild",
    "location": "121.421169,31.215079",
    "township": "华阳路街道"
  },
  {
    "name": "周二居民区党建服务站",
    "addr": "长宁路1447号底楼",
    "phone": "52734742--",
    "type": "partybuild",
    "location": "121.409662,31.216883",
    "township": "周家桥街道"
  },
  {
    "name": "金淞北平家园党建服务点",
    "addr": "淞虹路128弄5号",
    "phone": "52161940--",
    "type": "partybuild",
    "location": "121.361414,31.221823",
    "township": "北新泾街道"
  },
  {
    "name": "馥邦大厦党建服务点",
    "addr": "北渔路28弄9号101室",
    "phone": "52172411--",
    "type": "partybuild",
    "location": "121.373036,31.218117",
    "township": "北新泾街道"
  },
  {
    "name": "天山星城居民区党建服务站",
    "addr": "威宁路358弄3号",
    "phone": "52382320--",
    "type": "partybuild",
    "location": "121.386917,31.212978",
    "township": "新泾镇"
  },
  {
    "name": "铭辉大厦党建服务点",
    "addr": "哈密路442号",
    "phone": "52187114--",
    "type": "partybuild",
    "location": "121.374724,31.211898",
    "township": "新泾镇"
  },
  {
    "name": "百联西郊党建服务点",
    "addr": "仙霞西路88号",
    "phone": "52187114--",
    "type": "partybuild",
    "location": "121.369323,31.208886",
    "township": "新泾镇"
  },
  {
    "name": "虹景居民区党建服务站",
    "addr": "虹古路208弄1号201室",
    "phone": "62709569--",
    "type": "partybuild",
    "location": "121.394246,31.203835",
    "township": "仙霞新村街道"
  },
  {
    "name": "彩虹之源党建服务点",
    "addr": "娄山关路55号副楼3楼",
    "phone": "--",
    "type": "partybuild",
    "location": "121.402682,31.202907",
    "township": "虹桥街道"
  },
  {
    "name": "虹储居民区党建服务站",
    "addr": "虹桥路1041弄48号103室",
    "phone": "62087041--",
    "type": "partybuild",
    "location": "121.411970,31.198973",
    "township": "虹桥街道"
  },
  {
    "name": "荣华居民区党建服务站",
    "addr": "水城南路51弄21号102室",
    "phone": "32230048--",
    "type": "partybuild",
    "location": "121.393102,31.195402",
    "township": "虹桥街道"
  },
  {
    "name": "爱建居民区党建服务站",
    "addr": "安顺路351弄40号105室",
    "phone": "62093428--",
    "type": "partybuild",
    "location": "121.409112,31.199114",
    "township": "虹桥街道"
  },
  {
    "name": "安东居民区党建服务站",
    "addr": "安顺路181弄11号101室",
    "phone": "62094467--",
    "type": "partybuild",
    "location": "121.418537,31.200900",
    "township": "虹桥街道"
  },
  {
    "name": "宝北居民区党建服务站",
    "addr": "程家桥路80弄44号",
    "phone": "22300094--",
    "type": "partybuild",
    "location": "121.370867,31.188736",
    "township": "程家桥街道"
  },
  {
    "name": "西镇居民区党建服务站",
    "addr": "法华镇路751弄32号",
    "phone": "52307073--",
    "type": "partybuild",
    "location": "121.421945,31.207878",
    "township": "新华路街道"
  },
  {
    "name": "牛桥居民区党建服务站",
    "addr": "番禺路222弄24号",
    "phone": "52307064--",
    "type": "partybuild",
    "location": "121.427633,31.206731",
    "township": "新华路街道"
  },
  {
    "name": "和平居民区党建服务站",
    "addr": "平武路150弄到底",
    "phone": "62521806--",
    "type": "partybuild",
    "location": "121.431564,31.208624",
    "township": "新华路街道"
  },
  {
    "name": "幸福居民区党建服务站",
    "addr": "番禺路215号",
    "phone": "52307058--",
    "type": "partybuild",
    "location": "121.429461,31.206378",
    "township": "新华路街道"
  },
  {
    "name": "东镇居民区党建服务站",
    "addr": "法华镇路77号",
    "phone": "52307057--",
    "type": "partybuild",
    "location": "121.433011,31.202786",
    "township": "新华路街道"
  },
  {
    "name": "泰安居民区党建服务站",
    "addr": "兴国路244弄49支弄6号",
    "phone": "52307055--",
    "type": "partybuild",
    "location": "121.436345,31.205746",
    "township": "新华路街道"
  },
  {
    "name": "梅安居民区党建服务站",
    "addr": "定西路420弄5号",
    "phone": "52307071--",
    "type": "partybuild",
    "location": "121.423685,31.202801",
    "township": "新华路街道"
  },
  {
    "name": "番禺居民区党建服务站",
    "addr": "法华镇路457弄8号",
    "phone": "52541139--",
    "type": "partybuild",
    "location": "121.427150,31.204669",
    "township": "新华路街道"
  },
  {
    "name": "新华社区法人服务中心党建服务点",
    "addr": "定西路650号",
    "phone": "52342753--",
    "type": "partybuild",
    "location": "121.424022,31.206035",
    "township": "新华路街道"
  },
  {
    "name": "新华居民区党建服务站",
    "addr": "新华路365弄1号",
    "phone": "52541395--",
    "type": "partybuild",
    "location": "121.425377,31.202528",
    "township": "新华路街道"
  },
  {
    "name": "新华路街道社区党建服务中心",
    "addr": "法华镇路453号",
    "phone": "52540749--",
    "type": "partybuild",
    "location": "121.427008,31.204622",
    "township": "新华路街道"
  },
  {
    "name": "杨宅居民区党建服务站",
    "addr": "法华镇路660弄23号",
    "phone": "52307072--",
    "type": "partybuild",
    "location": "121.422609,31.205526",
    "township": "新华路街道"
  },
  {
    "name": "人民居民区党建服务站",
    "addr": "定西路710弄63号",
    "phone": "52306703--",
    "type": "partybuild",
    "location": "121.425530,31.207676",
    "township": "新华路街道"
  },
  {
    "name": "香花居民区党建服务站",
    "addr": "法华镇路500弄2号",
    "phone": "52307065--",
    "type": "partybuild",
    "location": "121.426010,31.204401",
    "township": "新华路街道"
  },
  {
    "name": "张家宅居民区党建服务站",
    "addr": "延安西路1000号",
    "phone": "52550026--",
    "type": "partybuild",
    "location": "121.431327,31.212691",
    "township": "新华路街道"
  },
  {
    "name": "淞虹小区第三居民区党建服务站",
    "addr": "平塘路700弄甲1号",
    "phone": "52171800--",
    "type": "partybuild",
    "location": "121.366224,31.207001",
    "township": "新泾镇"
  },
  {
    "name": "淞虹小区第四居民区党建服务站",
    "addr": "淞虹路735弄18号",
    "phone": "52170964--",
    "type": "partybuild",
    "location": "121.362084,31.208916",
    "township": "新泾镇"
  },
  {
    "name": "淞虹小区第五居民区党建服务站",
    "addr": "协和路198号",
    "phone": "52203976--",
    "type": "partybuild",
    "location": "121.357494,31.208763",
    "township": "新泾镇"
  },
  {
    "name": "曙光居民区党建服务站",
    "addr": "仙霞路888弄10号甲",
    "phone": "62425123--",
    "type": "partybuild",
    "location": "121.381669,31.207162",
    "township": "新泾镇"
  },
  {
    "name": "林泉居民区党建服务站",
    "addr": "仙霞西路1225弄110号",
    "phone": "62905527--",
    "type": "partybuild",
    "location": "121.376157,31.210218",
    "township": "新泾镇"
  },
  {
    "name": "德必易园党建服务点",
    "addr": "安化路492号",
    "phone": "52376536--",
    "type": "partybuild",
    "location": "121.420300,31.215341",
    "township": "华阳路街道"
  },
  {
    "name": "联通大厦党建服务点",
    "addr": "长宁路1033号",
    "phone": "61910166--",
    "type": "partybuild",
    "location": "121.417084,31.217647",
    "township": "华阳路街道"
  },
  {
    "name": "玫瑰坊党建服务点",
    "addr": "长宁路890号",
    "phone": "52418866--",
    "type": "partybuild",
    "location": "121.418839,31.219048",
    "township": "华阳路街道"
  },
  {
    "name": "尚街loft长宁会馆党建服务点",
    "addr": "长宁路546号",
    "phone": "13917830714--",
    "type": "partybuild",
    "location": "121.424701,31.222045",
    "township": "华阳路街道"
  },
  {
    "name": "华联创意广场党建服务点",
    "addr": "江苏北路125号",
    "phone": "13917830714--",
    "type": "partybuild",
    "location": "121.424463,31.227299",
    "township": "华阳路街道"
  },
  {
    "name": "新亚药业大厦党建服务点",
    "addr": "江苏北路89号",
    "phone": "13818518587--",
    "type": "partybuild",
    "location": "121.426170,31.224460",
    "township": "华阳路街道"
  },
  {
    "name": "锦屏居民区党建服务点",
    "addr": "云雾山路551弄48号8号房间",
    "phone": "62597428--",
    "type": "partybuild",
    "location": "121.403800,31.215382",
    "township": "周家桥街道"
  },
  {
    "name": "杨家宅居民区党建服务站",
    "addr": "玉屏南路560弄29号104室",
    "phone": "62599568--",
    "type": "partybuild",
    "location": "121.401917,31.215641",
    "township": "周家桥街道"
  },
  {
    "name": "古南居民区党建服务站",
    "addr": "天山支路100弄4号103室",
    "phone": "62295443--",
    "type": "partybuild",
    "location": "121.397987,31.215246",
    "township": "周家桥街道"
  },
  {
    "name": "上海花城居民区党建服务站",
    "addr": "长宁路1818弄44号101室",
    "phone": "52720416--",
    "type": "partybuild",
    "location": "121.404935,31.220290",
    "township": "周家桥街道"
  },
  {
    "name": "虹桥新城居民区党建服务站",
    "addr": "长宁路1661弄20号305室",
    "phone": "52421164--",
    "type": "partybuild",
    "location": "121.407048,31.217097",
    "township": "周家桥街道"
  },
  {
    "name": "中山公寓居民区党建服务站",
    "addr": "长宁路1277弄10号101室",
    "phone": "52411529--",
    "type": "partybuild",
    "location": "121.412394,31.216201",
    "township": "周家桥街道"
  },
  {
    "name": "长宁新城居民区党建服务站",
    "addr": "长宁路1188弄5号2楼",
    "phone": "52412634--",
    "type": "partybuild",
    "location": "121.413853,31.217910",
    "township": "周家桥街道"
  },
  {
    "name": "大家源居民区党建服务站",
    "addr": "万航渡路2088弄4号103室",
    "phone": "52414160--",
    "type": "partybuild",
    "location": "121.411760,31.222124",
    "township": "周家桥街道"
  },
  {
    "name": "春天花园居民区党建服务站",
    "addr": "娄山关路999弄75号1楼",
    "phone": "52725787--",
    "type": "partybuild",
    "location": "121.403466,31.217869",
    "township": "周家桥街道"
  },
  {
    "name": "万博花园居民区党建服务站",
    "addr": "古北路69弄16号101室",
    "phone": "52721354--",
    "type": "partybuild",
    "location": "121.399134,31.216806",
    "township": "周家桥街道"
  },
  {
    "name": "泛太大厦党建服务点",
    "addr": "延安西路1221号",
    "phone": "62109839--",
    "type": "partybuild",
    "location": "121.427860,31.210864",
    "township": "华阳路街道"
  },
  {
    "name": "新泾三村居民区党建服务站",
    "addr": "新泾三村10号102室",
    "phone": "52195264--",
    "type": "partybuild",
    "location": "121.369276,31.215701",
    "township": "北新泾街道"
  },
  {
    "name": "北虹居民区党建服务站",
    "addr": "北虹路1000弄17号",
    "phone": "62907097--",
    "type": "partybuild",
    "location": "121.377990,31.213606",
    "township": "新泾镇"
  },
  {
    "name": "新泾七村居民区党建服务站",
    "addr": "金钟路333弄68号",
    "phone": "52188679--",
    "type": "partybuild",
    "location": "121.362133,31.219557",
    "township": "北新泾街道"
  },
  {
    "name": "屈家桥居民区党建服务站",
    "addr": "北翟路980弄86号",
    "phone": "51577800--",
    "type": "partybuild",
    "location": "121.357822,31.225874",
    "township": "新泾镇"
  },
  {
    "name": "长房国际广场党建服务点",
    "addr": "娄山关路555号",
    "phone": "62298883--",
    "type": "partybuild",
    "location": "121.403517,31.210143",
    "township": "天山路街道"
  },
  {
    "name": "申菱大厦党建服务点",
    "addr": "古北路507号",
    "phone": "62344183--",
    "type": "partybuild",
    "location": "121.401171,31.208985",
    "township": "天山路街道"
  },
  {
    "name": "天山茶城党建服务点",
    "addr": "中山西路518号",
    "phone": "62599999*821--",
    "type": "partybuild",
    "location": "121.411939,31.213152",
    "township": "天山路街道"
  },
  {
    "name": "天山二村居民区党建服务站",
    "addr": "天山二村64号1楼",
    "phone": "62590216--",
    "type": "partybuild",
    "location": "121.404708,31.209892",
    "township": "天山路街道"
  },
  {
    "name": "天山三村居民区党建服务站",
    "addr": "玉屏南路380弄120号",
    "phone": "62591135--",
    "type": "partybuild",
    "location": "121.406731,31.213308",
    "township": "天山路街道"
  },
  {
    "name": "天山四村居民区党建服务站",
    "addr": "天山四村134号",
    "phone": "62286198--",
    "type": "partybuild",
    "location": "121.402531,31.213070",
    "township": "天山路街道"
  },
  {
    "name": "仙霞居民区党建服务站",
    "addr": "娄山关路425弄6号102室",
    "phone": "62590294--",
    "type": "partybuild",
    "location": "121.402487,31.206440",
    "township": "天山路街道"
  },
  {
    "name": "天山路街道社区党建服务中心",
    "addr": "天山四村122号3号楼3楼",
    "phone": "62333791--",
    "type": "partybuild",
    "location": "121.402550,31.212596",
    "township": "天山路街道"
  },
  {
    "name": "新泾一村一居党建服务站",
    "addr": "新泾一村210号101室",
    "phone": "52184347--",
    "type": "partybuild",
    "location": "121.371069,31.219006",
    "township": "北新泾街道"
  },
  {
    "name": "一村二居党建服务站",
    "addr": "剑河路256号",
    "phone": "52187538--",
    "type": "partybuild",
    "location": "121.367767,31.214927",
    "township": "新泾镇"
  },
  {
    "name": "新泾二村居民区党建服务站",
    "addr": "新泾二村37号102室",
    "phone": "52188441--",
    "type": "partybuild",
    "location": "121.373994,31.215543",
    "township": "北新泾街道"
  },
  {
    "name": "新泾四村居民区党建服务站",
    "addr": "天山西路351弄2号",
    "phone": "62396806--",
    "type": "partybuild",
    "location": "121.366427,31.217119",
    "township": "北新泾街道"
  },
  {
    "name": "新泾五村居民区党建服务站",
    "addr": "天山西路350弄55号",
    "phone": "52600723--",
    "type": "partybuild",
    "location": "121.366505,31.219140",
    "township": "北新泾街道"
  },
  {
    "name": "虹桥世家花园党建服务点",
    "addr": "中山西路179号",
    "phone": "52723072--",
    "type": "partybuild",
    "location": "121.411153,31.219615",
    "township": "周家桥街道"
  },
  {
    "name": "虹桥电子时代广场党建服务点",
    "addr": "天山支路168号",
    "phone": "61136260--",
    "type": "partybuild",
    "location": "121.396332,31.215235",
    "township": "周家桥街道"
  },
  {
    "name": "中田倍益商务楼党建服务点",
    "addr": "武夷路697号",
    "phone": "52732500--",
    "type": "partybuild",
    "location": "121.416962,31.212958",
    "township": "周家桥街道"
  },
  {
    "name": "绿洲大厦党建服务点",
    "addr": "中山西路555号",
    "phone": "62865888-3211--",
    "type": "partybuild",
    "location": "121.412643,31.213921",
    "township": "周家桥街道"
  },
  {
    "name": "宇航大厦党建服务点",
    "addr": "长宁路1488弄10号",
    "phone": "52730394--",
    "type": "partybuild",
    "location": "121.407637,31.218104",
    "township": "周家桥街道"
  },
  {
    "name": "龙之梦万丽大厦党建服务点",
    "addr": "长宁路1018号",
    "phone": "13120627983--",
    "type": "partybuild",
    "location": "121.417085,31.219017",
    "township": "华阳路街道"
  },
  {
    "name": "天山居民区党建服务站",
    "addr": "娄山关路764弄16号104室",
    "phone": "62290912--",
    "type": "partybuild",
    "location": "121.405227,31.211554",
    "township": "天山路街道"
  },
  {
    "name": "天义居民区党建服务站",
    "addr": "玉屏南路345弄21号104室",
    "phone": "62599249--",
    "type": "partybuild",
    "location": "121.407172,31.212018",
    "township": "天山路街道"
  },
  {
    "name": "天支居民区党建服务站",
    "addr": "天山支路39弄40号",
    "phone": "62736098--",
    "type": "partybuild",
    "location": "121.398952,31.213455",
    "township": "天山路街道"
  },
  {
    "name": "新光居民区党建服务站",
    "addr": "玉屏南路537弄8号104室",
    "phone": "62298342--",
    "type": "partybuild",
    "location": "121.403334,31.213735",
    "township": "天山路街道"
  },
  {
    "name": "程桥一村居民区党建服务站",
    "addr": "程桥一村9号102室",
    "phone": "22300091--",
    "type": "partybuild",
    "location": "121.370990,31.191281",
    "township": "程家桥街道"
  },
  {
    "name": "程桥二村居民区党建服务站",
    "addr": "程桥二村82号103室",
    "phone": "22300092--",
    "type": "partybuild",
    "location": "121.375295,31.190280",
    "township": "程家桥街道"
  },
  {
    "name": "佳都大厦党建服务点",
    "addr": "延安西路719号",
    "phone": "62254130--",
    "type": "partybuild",
    "location": "121.434377,31.214665",
    "township": "江苏路街道"
  },
  {
    "name": "上航居民区党建服务站",
    "addr": "上航新村333号101室",
    "phone": "22300097--",
    "type": "partybuild",
    "location": "121.355960,31.184219",
    "township": "程家桥街道"
  },
  {
    "name": "玉屏居民区党建服务站",
    "addr": "中山西路450号",
    "phone": "62592647--",
    "type": "partybuild",
    "location": "121.411220,31.214347",
    "township": "天山路街道"
  },
  {
    "name": "潘西居民区党建服务站",
    "addr": "武夷路519弄59号",
    "phone": "52376516--",
    "type": "partybuild",
    "location": "121.419444,31.213499",
    "township": "华阳路街道"
  },
  {
    "name": "锦苑居民区党建服务站",
    "addr": "虹桥路1829弄36号",
    "phone": "62627271--",
    "type": "partybuild",
    "location": "121.388171,31.199730",
    "township": "仙霞新村街道"
  },
  {
    "name": "虹霞居民区党建服务站",
    "addr": "虹古路410弄5号103室",
    "phone": "62423664--",
    "type": "partybuild",
    "location": "121.388563,31.204338",
    "township": "仙霞新村街道"
  },
  {
    "name": "南龚居民区党建服务站",
    "addr": "虹桥路2222弄22号",
    "phone": "22300096--",
    "type": "partybuild",
    "location": "121.379614,31.191574",
    "township": "程家桥街道"
  },
  {
    "name": "豪园居民区党建服务站",
    "addr": "虹井路906号",
    "phone": "62683269--",
    "type": "partybuild",
    "location": "121.367671,31.189149",
    "township": "程家桥街道"
  },
  {
    "name": "刘家宅第二居民区党建服务站",
    "addr": "剑河路414弄16号",
    "phone": "52177052--",
    "type": "partybuild",
    "location": "121.368318,31.213586",
    "township": "新泾镇"
  },
  {
    "name": "刘家宅第三居民区党建服务站",
    "addr": "泉口路109弄98号",
    "phone": "52179748--",
    "type": "partybuild",
    "location": "121.370783,31.211286",
    "township": "新泾镇"
  },
  {
    "name": "刘家宅第四居民区党建服务站",
    "addr": "泉口路185弄113号",
    "phone": "52173584--",
    "type": "partybuild",
    "location": "121.366384,31.211916",
    "township": "新泾镇"
  },
  {
    "name": "淞虹小区第二居民区党建服务站",
    "addr": "剑河路599弄107号",
    "phone": "52204736--",
    "type": "partybuild",
    "location": "121.368640,31.206218",
    "township": "新泾镇"
  },
  {
    "name": "红坊国际文化艺术社区党建服务点",
    "addr": "淮海西路570号",
    "phone": "52342751--",
    "type": "partybuild",
    "location": "121.424072,31.198459",
    "township": "新华路街道"
  },
  {
    "name": "东方世纪大厦党建服务点",
    "addr": "仙霞路345号",
    "phone": "62335820--",
    "type": "partybuild",
    "location": "121.397774,31.206066",
    "township": "仙霞新村街道"
  },
  {
    "name": "现代广场党建服务点",
    "addr": "仙霞路369号",
    "phone": "62335820--",
    "type": "partybuild",
    "location": "121.396541,31.206395",
    "township": "仙霞新村街道"
  },
  {
    "name": "鑫达大厦党建服务点",
    "addr": "仙霞路322号",
    "phone": "62335820--",
    "type": "partybuild",
    "location": "121.398981,31.205529",
    "township": "仙霞新村街道"
  },
  {
    "name": "慧谷白猫科技园党建服务点",
    "addr": "天山路641号",
    "phone": "62286832--",
    "type": "partybuild",
    "location": "121.394813,31.212740",
    "township": "仙霞新村街道"
  },
  {
    "name": "刘家宅第一居民区党建服务站",
    "addr": "剑河路409弄19号",
    "phone": "52170899--",
    "type": "partybuild",
    "location": "121.367221,31.214680",
    "township": "新泾镇"
  },
  {
    "name": "中五居民区党建服务站",
    "addr": "武夷路709弄13号101室",
    "phone": "62333100--",
    "type": "partybuild",
    "location": "121.415983,31.213193",
    "township": "周家桥街道"
  },
  {
    "name": "何家角居民区党建服务站",
    "addr": "长顺路105号",
    "phone": "62193110--",
    "type": "partybuild",
    "location": "121.417171,31.200673",
    "township": "虹桥街道"
  },
  {
    "name": "华松居民区党建服务站",
    "addr": "仙霞西路700弄72号",
    "phone": "52178327--",
    "type": "partybuild",
    "location": "121.357275,31.210658",
    "township": "新泾镇"
  },
  {
    "name": "南洋新都居民区党建服务站",
    "addr": "双流路54弄4号",
    "phone": "62915426--",
    "type": "partybuild",
    "location": "121.380788,31.212135",
    "township": "新泾镇"
  },
  {
    "name": "怡景苑居民区党建服务站",
    "addr": "威宁路511弄5号",
    "phone": "32511655--",
    "type": "partybuild",
    "location": "121.384382,31.217692",
    "township": "新泾镇"
  },
  {
    "name": "东银中心党建服务点",
    "addr": "红宝石路500号",
    "phone": "62080201--",
    "type": "partybuild",
    "location": "121.400104,31.198155",
    "township": "虹桥街道"
  },
  {
    "name": "嘉春753园区党建服务点",
    "addr": "愚园路753号",
    "phone": "--",
    "type": "partybuild",
    "location": "121.434412,31.220259",
    "township": "江苏路街道"
  },
  {
    "name": "九尊大厦党建服务点",
    "addr": "镇宁路9号",
    "phone": "--",
    "type": "partybuild",
    "location": "121.438537,31.215196",
    "township": "江苏路街道"
  },
  {
    "name": "国际企业会馆党建服务点",
    "addr": "宣化路28号",
    "phone": "--",
    "type": "partybuild",
    "location": "121.430434,31.217966",
    "township": "江苏路街道"
  },
  {
    "name": "SOHO中山广场党建服务点",
    "addr": "中山西路1055号",
    "phone": "--",
    "type": "partybuild",
    "location": "121.415116,31.198405",
    "township": "虹桥街道"
  },
  {
    "name": "虹桥南丰城党建服务点",
    "addr": "遵义路100号",
    "phone": "--",
    "type": "partybuild",
    "location": "121.407427,31.207099",
    "township": "天山路街道"
  },
  {
    "name": "天山商厦商住楼党建服务点",
    "addr": "上海长宁区天山路789号",
    "phone": "--",
    "type": "partybuild",
    "location": "121.403536,31.210217",
    "township": "天山路街道"
  },
  {
    "name": "紫虹大厦党建服务点",
    "addr": "中山西路800弄57号",
    "phone": "--",
    "type": "partybuild",
    "location": "121.409510,31.206166",
    "township": "天山路街道"
  },
  {
    "name": "紫云大厦党建服务点",
    "addr": "中山西路800弄55号",
    "phone": "--",
    "type": "partybuild",
    "location": "121.410144,31.206354",
    "township": "天山路街道"
  },
  {
    "name": "上服商务大厦党建服务点",
    "addr": "中山西路750号",
    "phone": "--",
    "type": "partybuild",
    "location": "121.411546,31.207822",
    "township": "天山路街道"
  },
  {
    "name": "古北公寓党建服务点",
    "addr": "古北路585号",
    "phone": "--",
    "type": "partybuild",
    "location": "121.400858,31.207060",
    "township": "天山路街道"
  },
  {
    "name": "思创大厦党建服务点",
    "addr": "天山路600弄3号、4号",
    "phone": "--",
    "type": "partybuild",
    "location": "121.397226,31.213818",
    "township": "天山路街道"
  },
  {
    "name": "捷运大厦党建服务点",
    "addr": "天山路600弄2号",
    "phone": "--",
    "type": "partybuild",
    "location": "121.397348,31.213365",
    "township": "天山路街道"
  },
  {
    "name": "长宁科技大楼党建服务点",
    "addr": "天山支路201号",
    "phone": "--",
    "type": "partybuild",
    "location": "121.396065,31.213609",
    "township": "天山路街道"
  },
  {
    "name": "同达创业大厦党建服务点",
    "addr": "天山路600弄1号",
    "phone": "--",
    "type": "partybuild",
    "location": "121.396632,31.213177",
    "township": "天山路街道"
  },
  {
    "name": "盛高大厦党建服务点",
    "addr": "仙霞路137号",
    "phone": "--",
    "type": "partybuild",
    "location": "121.407526,31.203467",
    "township": "虹桥街道"
  },
  {
    "name": "安泰大楼党建服务点",
    "addr": "遵义路107号",
    "phone": "--",
    "type": "partybuild",
    "location": "121.406311,31.206722",
    "township": "天山路街道"
  },
  {
    "name": "远东国际广场党建服务点",
    "addr": "仙霞路299(裙楼)、317(B)、319号(A)",
    "phone": "--",
    "type": "partybuild",
    "location": "121.401924,31.206192",
    "township": "天山路街道"
  },
  {
    "name": "虹桥华庭党建服务点",
    "addr": "古北路555弄底",
    "phone": "--",
    "type": "partybuild",
    "location": "121.400856,31.208401",
    "township": "天山路街道"
  },
  {
    "name": "金虹桥国际中心党建服务点",
    "addr": "娄山关路533号",
    "phone": "--",
    "type": "partybuild",
    "location": "121.403146,31.208960",
    "township": "天山路街道"
  },
  {
    "name": "泓鑫时尚广场党建服务点",
    "addr": "天山路762号",
    "phone": "--",
    "type": "partybuild",
    "location": "121.403249,31.211437",
    "township": "天山路街道"
  },
  {
    "name": "尚嘉中心党建服务点",
    "addr": "仙霞路99号",
    "phone": "--",
    "type": "partybuild",
    "location": "121.407106,31.205723",
    "township": "天山路街道"
  },
  {
    "name": "长裕大厦党建服务点",
    "addr": "延安西路789号",
    "phone": "--",
    "type": "partybuild",
    "location": "121.434357,31.213859",
    "township": "江苏路街道"
  },
  {
    "name": "嘉利大厦党建服务点",
    "addr": "延安西路1228弄2号",
    "phone": "32527559--",
    "type": "partybuild",
    "location": "121.427540,31.209861",
    "township": "新华路街道"
  },
  {
    "name": "德必昭航创意园区党建服务点",
    "addr": "昭化路357号",
    "phone": "62510833--",
    "type": "partybuild",
    "location": "121.424323,31.211759",
    "township": "华阳路街道"
  },
  {
    "name": "聚为园商务园区党建服务点",
    "addr": "武夷路335号",
    "phone": "62124768--",
    "type": "partybuild",
    "location": "121.424151,31.213331",
    "township": "华阳路街道"
  },
  {
    "name": "利星国际广场党建服务点",
    "addr": "延安西路1319号，延安西路1339号",
    "phone": "52376266--",
    "type": "partybuild",
    "location": "121.424975,31.210530",
    "township": "华阳路街道"
  },
  {
    "name": "亨通国际大厦党建服务点",
    "addr": "长宁路855号",
    "phone": "62402601--",
    "type": "partybuild",
    "location": "121.420211,31.218531",
    "township": "华阳路街道"
  },
  {
    "name": "中泾居民区党建服务站",
    "addr": "中泾路18弄16号",
    "phone": "52186196--",
    "type": "partybuild",
    "location": "121.364842,31.199760",
    "township": "新泾镇"
  },
  {
    "name": "淮阴居民区党建服务站",
    "addr": "淮阴路575弄17号",
    "phone": "62912090--",
    "type": "partybuild",
    "location": "121.372321,31.205395",
    "township": "新泾镇"
  },
  {
    "name": "虹旭居民区党建服务站",
    "addr": "虹古路417弄5号103室",
    "phone": "62623304--",
    "type": "partybuild",
    "location": "121.386683,31.203591",
    "township": "仙霞新村街道"
  },
  {
    "name": "虹仙居民区党建服务站",
    "addr": "仙霞路750弄56号",
    "phone": "62627517--",
    "type": "partybuild",
    "location": "121.384559,31.204433",
    "township": "仙霞新村街道"
  },
  {
    "name": "水霞居民区党建服务站",
    "addr": "茅台路601弄36号",
    "phone": "62281904--",
    "type": "partybuild",
    "location": "121.389049,31.208354",
    "township": "仙霞新村街道"
  },
  {
    "name": "安龙居民区党建服务站",
    "addr": "安龙路929弄12号102室",
    "phone": "62900272--",
    "type": "partybuild",
    "location": "121.386372,31.212218",
    "township": "仙霞新村街道"
  },
  {
    "name": "古宋居民区党建服务站",
    "addr": "茅台路600弄22号",
    "phone": "62903267--",
    "type": "partybuild",
    "location": "121.388174,31.211478",
    "township": "仙霞新村街道"
  },
  {
    "name": "天原二村居民区党建服务站",
    "addr": "天山路461弄18号104室",
    "phone": "62598225--",
    "type": "partybuild",
    "location": "121.390272,31.212976",
    "township": "仙霞新村街道"
  },
  {
    "name": "茅台新苑居民区党建服务站",
    "addr": "茅台路455弄5号103室",
    "phone": "62338169--",
    "type": "partybuild",
    "location": "121.394960,31.209007",
    "township": "仙霞新村街道"
  },
  {
    "name": "茅台花苑居民区党建服务站",
    "addr": "茅台路500弄14号",
    "phone": "62346080--",
    "type": "partybuild",
    "location": "121.392759,31.210983",
    "township": "仙霞新村街道"
  },
  {
    "name": "华联发展大厦党建服务点",
    "addr": "新华路728号",
    "phone": "52342751--",
    "type": "partybuild",
    "location": "121.417808,31.206332",
    "township": "新华路街道"
  },
  {
    "name": "新风居民区党建服务站",
    "addr": "玉屏南路723号101室",
    "phone": "62334009--",
    "type": "partybuild",
    "location": "121.401315,31.214626",
    "township": "天山路街道"
  },
  {
    "name": "中紫居民区党建服务站",
    "addr": "中山西路800弄53号101室",
    "phone": "62590209--",
    "type": "partybuild",
    "location": "121.411013,31.207547",
    "township": "天山路街道"
  },
  {
    "name": "华五居民区党建服务站",
    "addr": "华阳路20弄6号",
    "phone": "52376325--",
    "type": "partybuild",
    "location": "121.419879,31.224669",
    "township": "华阳路街道"
  },
  {
    "name": "华三居民区党建服务站",
    "addr": "华阳路249弄3号103室",
    "phone": "52376323--",
    "type": "partybuild",
    "location": "121.423742,31.221971",
    "township": "华阳路街道"
  },
  {
    "name": "虹桥银城党建服务点",
    "addr": "中山西路933号2楼",
    "phone": "51113007--",
    "type": "partybuild",
    "location": "121.413114,31.201754",
    "township": "天山路街道"
  },
  {
    "name": "茅台居民区党建服务站",
    "addr": "天山二村142号1楼",
    "phone": "62418442--",
    "type": "partybuild",
    "location": "121.406349,31.207706",
    "township": "天山路街道"
  },
  {
    "name": "弘基创邑国际园党建服务点",
    "addr": "愚园路1107号",
    "phone": "--",
    "type": "partybuild",
    "location": "121.428307,31.218275",
    "township": "江苏路街道"
  },
  {
    "name": "新东纺商务中心党建服务点",
    "addr": "镇宁路525号",
    "phone": "--",
    "type": "partybuild",
    "location": "121.434986,31.224271",
    "township": "江苏路街道"
  },
  {
    "name": "兆丰世贸大厦党建服务点",
    "addr": "江苏路369号",
    "phone": "--",
    "type": "partybuild",
    "location": "121.431488,31.218827",
    "township": "江苏路街道"
  },
  {
    "name": "华敏翰尊国际大厦党建服务点",
    "addr": "延安西路726、728号",
    "phone": "52380808*816--",
    "type": "partybuild",
    "location": "121.433366,31.214933",
    "township": "江苏路街道"
  },
  {
    "name": "五一居民区党建服务站",
    "addr": "天山路671号101室",
    "phone": "62598044--",
    "type": "partybuild",
    "location": "121.397302,31.212413",
    "township": "仙霞新村街道"
  },
  {
    "name": "五三居民区党建服务站",
    "addr": "茅台路270弄10号104室",
    "phone": "62738061--",
    "type": "partybuild",
    "location": "121.398431,31.210262",
    "township": "仙霞新村街道"
  },
  {
    "name": "大金更居民区党建服务站",
    "addr": "古北路530弄30号101室",
    "phone": "62339058--",
    "type": "partybuild",
    "location": "121.399160,31.208437",
    "township": "仙霞新村街道"
  },
  {
    "name": "芙二居民区党建服务站",
    "addr": "芙蓉江路150弄25号103室",
    "phone": "62592091--",
    "type": "partybuild",
    "location": "121.394049,31.207927",
    "township": "仙霞新村街道"
  },
  {
    "name": "仙逸居民区党建服务站",
    "addr": "水城路382弄14号",
    "phone": "62739970--",
    "type": "partybuild",
    "location": "121.392599,31.206398",
    "township": "仙霞新村街道"
  },
  {
    "name": "仙二居民区党建服务站",
    "addr": "仙霞路432号105室",
    "phone": "62089269--",
    "type": "partybuild",
    "location": "121.393838,31.205621",
    "township": "仙霞新村街道"
  },
  {
    "name": "虹古居民区党建服务站",
    "addr": "水城路40弄26号",
    "phone": "62198551--",
    "type": "partybuild",
    "location": "121.392002,31.202170",
    "township": "仙霞新村街道"
  },
  {
    "name": "遵义居民区党建服务站",
    "addr": "天山三村20号106室",
    "phone": "62596675--",
    "type": "partybuild",
    "location": "121.408878,31.213713",
    "township": "天山路街道"
  },
  {
    "name": "友谊居民区党建服务站",
    "addr": "玉屏南路41弄11号102室",
    "phone": "62349131--",
    "type": "partybuild",
    "location": "121.411436,31.211996",
    "township": "天山路街道"
  },
  {
    "name": "联建居民区党建服务站",
    "addr": "联建新村11号楼",
    "phone": "62416506--",
    "type": "partybuild",
    "location": "121.409536,31.205520",
    "township": "天山路街道"
  },
  {
    "name": "延西居民区党建服务站",
    "addr": "延安西路1740弄19号102室",
    "phone": "62091706--",
    "type": "partybuild",
    "location": "121.416426,31.207069",
    "township": "天山路街道"
  },
  {
    "name": "纺大居民区党建服务站",
    "addr": "安顺路220弄12号",
    "phone": "62098477--",
    "type": "partybuild",
    "location": "121.415885,31.201025",
    "township": "天山路街道"
  },
  {
    "name": "江苏路街道社区党建服务中心",
    "addr": "江苏路563弄8号",
    "phone": "62256600×302--",
    "type": "partybuild",
    "location": "121.433126,31.215805",
    "township": "江苏路街道"
  },
  {
    "name": "绿园新村第十一居民区党建服务站",
    "addr": "福泉路435弄127号",
    "phone": "52201421--",
    "type": "partybuild",
    "location": "121.358886,31.205140",
    "township": "新泾镇"
  },
  {
    "name": "绿园新村第十二居民区党建服务站",
    "addr": "福泉路495弄13号",
    "phone": "52201167--",
    "type": "partybuild",
    "location": "121.359038,31.202995",
    "township": "新泾镇"
  },
  {
    "name": "虹园新村第九居民区党建服务站",
    "addr": "平塘路415弄38号",
    "phone": "52201023--",
    "type": "partybuild",
    "location": "121.363520,31.214689",
    "township": "新泾镇"
  },
  {
    "name": "平塘居民区党建服务站",
    "addr": "凇虹路650弄56号",
    "phone": "52205656--",
    "type": "partybuild",
    "location": "121.361839,31.212309",
    "township": "新泾镇"
  },
  {
    "name": "双流居民区党建服务站",
    "addr": "天山路288弄18号",
    "phone": "62913074--",
    "type": "partybuild",
    "location": "121.385208,31.216710",
    "township": "新泾镇"
  },
  {
    "name": "程桥居民区党建服务站",
    "addr": "剑河路2001弄51号",
    "phone": "62611963--",
    "type": "partybuild",
    "location": "121.370481,31.194761",
    "township": "新泾镇"
  },
  {
    "name": "虹康居民区党建服务站",
    "addr": "仙霞西路500弄53号",
    "phone": "52207110--",
    "type": "partybuild",
    "location": "121.363175,31.210547",
    "township": "新泾镇"
  },
  {
    "name": "仁恒河滨居民区党建服务站",
    "addr": "芙蓉江路388弄20号101室",
    "phone": "62743982--",
    "type": "partybuild",
    "location": "121.393529,31.216765",
    "township": "周家桥街道"
  },
  {
    "name": "芙一居民区党建服务站",
    "addr": "芙蓉江路103弄26号102室",
    "phone": "62738172--",
    "type": "partybuild",
    "location": "121.396313,31.208422",
    "township": "仙霞新村街道"
  },
  {
    "name": "虹日居民区党建服务站",
    "addr": "水城路45弄21支弄86号",
    "phone": "62425344--",
    "type": "partybuild",
    "location": "121.390002,31.201936",
    "township": "仙霞新村街道"
  },
  {
    "name": "杜一居民区党建服务站",
    "addr": "茅台路460弄2号104室",
    "phone": "62743386--",
    "type": "partybuild",
    "location": "121.394120,31.210347",
    "township": "仙霞新村街道"
  },
  {
    "name": "苏一居民区党建服务站",
    "addr": "汇川路300弄576号",
    "phone": "32083562--",
    "type": "partybuild",
    "location": "121.417200,31.221811",
    "township": "华阳路街道"
  },
  {
    "name": "新渔路居民区党建服务站",
    "addr": "新渔东路550弄4号",
    "phone": "62901927--",
    "type": "partybuild",
    "location": "121.383429,31.212665",
    "township": "新泾镇"
  },
  {
    "name": "绿园新村第一居民区党建服务站",
    "addr": "凇虹路685弄108号",
    "phone": "52204017--",
    "type": "partybuild",
    "location": "121.359596,31.214108",
    "township": "新泾镇"
  },
  {
    "name": "绿园新村第五居民区党建服务站",
    "addr": "淞虹路1005弄7号",
    "phone": "52202453--",
    "type": "partybuild",
    "location": "121.363946,31.202918",
    "township": "新泾镇"
  },
  {
    "name": "绿园新村第八居民区党建服务站",
    "addr": "福泉路255弄27号",
    "phone": "52209133--",
    "type": "partybuild",
    "location": "121.357701,31.212824",
    "township": "新泾镇"
  },
  {
    "name": "新泾八村居民区党建服务站",
    "addr": "新渔路400弄13号102室",
    "phone": "52600724--",
    "type": "partybuild",
    "location": "121.363855,31.216789",
    "township": "北新泾街道"
  },
  {
    "name": "北翟居民区党建服务站",
    "addr": "金钟路428弄26号102室",
    "phone": "52181255--",
    "type": "partybuild",
    "location": "121.364028,31.220705",
    "township": "北新泾街道"
  },
  {
    "name": "蒲北居民区党建服务站",
    "addr": "北渔路28弄9号201室",
    "phone": "32525027--",
    "type": "partybuild",
    "location": "121.373036,31.218117",
    "township": "北新泾街道"
  },
  {
    "name": "陈家巷居民区党建服务站",
    "addr": "华山路1533号",
    "phone": "52307056--",
    "type": "partybuild",
    "location": "121.434097,31.204776",
    "township": "新华路街道"
  },
  {
    "name": "田渡居民区党建服务站",
    "addr": "新华路569弄106支弄6号",
    "phone": "52307069--",
    "type": "partybuild",
    "location": "121.420728,31.202467",
    "township": "新华路街道"
  },
  {
    "name": "左家宅居民区党建服务站",
    "addr": "安顺路89弄11号",
    "phone": "52541257--",
    "type": "partybuild",
    "location": "121.421867,31.199834",
    "township": "新华路街道"
  },
  {
    "name": "伊犁居民区党建服务站",
    "addr": "伊犁路134弄23号102室",
    "phone": "62095023--",
    "type": "partybuild",
    "location": "121.408778,31.201032",
    "township": "虹桥街道"
  },
  {
    "name": "虹南居民区党建服务站",
    "addr": "中山西路1432弄37号102室",
    "phone": "32090411--",
    "type": "partybuild",
    "location": "121.417456,31.191914",
    "township": "虹桥街道"
  },
  {
    "name": "虹梅居民区党建服务站",
    "addr": "虹梅路3818弄10号104室",
    "phone": "62627188--",
    "type": "partybuild",
    "location": "121.385506,31.191897",
    "township": "虹桥街道"
  },
  {
    "name": "周家桥街道社区党建服务中心",
    "addr": "长宁路1488弄6号6楼",
    "phone": "52734312--",
    "type": "partybuild",
    "location": "121.409297,31.217949",
    "township": "周家桥街道"
  },
  {
    "name": "仙霞新村街道社区党建服务中心",
    "addr": "芙蓉江路32号109室",
    "phone": "62336100--",
    "type": "partybuild",
    "location": "121.395119,31.204604",
    "township": "仙霞新村街道"
  },
  {
    "name": "程家桥街道社区党建服务中心",
    "addr": "虹桥路2282号",
    "phone": "22300150--",
    "type": "partybuild",
    "location": "121.375014,31.191241",
    "township": "程家桥街道"
  },
  {
    "name": "北新泾街道社区党建服务中心",
    "addr": "金钟路388号",
    "phone": "52190377--",
    "type": "partybuild",
    "location": "121.364474,31.220215",
    "township": "北新泾街道"
  },
  {
    "name": "舜元企业发展大厦党建服务点",
    "addr": "江苏路398号",
    "phone": "61677755--",
    "type": "partybuild",
    "location": "121.430394,31.218524",
    "township": "江苏路街道"
  },
  {
    "name": "新泾居民区党建服务站",
    "addr": "仙霞西路885弄76号",
    "phone": "32526001--",
    "type": "partybuild",
    "location": "121.350753,31.207281",
    "township": "新泾镇"
  },
  {
    "name": "周一居民区党建服务站",
    "addr": "万航渡路2505弄23号103室",
    "phone": "52739463--",
    "type": "partybuild",
    "location": "121.406267,31.219550",
    "township": "周家桥街道"
  },
  {
    "name": "华四居民区党建服务站",
    "addr": "长宁路712弄79号",
    "phone": "52376320--",
    "type": "partybuild",
    "location": "121.422475,31.221445",
    "township": "华阳路街道"
  },
  {
    "name": "华院居民区党建服务站",
    "addr": "万航渡路1579弄2号楼对面",
    "phone": "52376326--",
    "type": "partybuild",
    "location": "121.416586,31.223737",
    "township": "华阳路街道"
  },
  {
    "name": "兆丰大厦党建服务点",
    "addr": "长宁路398号",
    "phone": "--",
    "type": "partybuild",
    "location": "121.426076,31.223498",
    "township": "华阳路街道"
  },
  {
    "name": "华一居民区党建服务站",
    "addr": "长宁路476弄4号104室",
    "phone": "52376321--",
    "type": "partybuild",
    "location": "121.425541,31.222762",
    "township": "华阳路街道"
  },
  {
    "name": "华二居民区党党建服务站",
    "addr": "万航渡路1298弄1号",
    "phone": "52376512--",
    "type": "partybuild",
    "location": "121.422660,31.226674",
    "township": "华阳路街道"
  },
  {
    "name": "秀水居民区党建服务站",
    "addr": "万航渡路1424弄21号101室",
    "phone": "52376327--",
    "type": "partybuild",
    "location": "121.422877,31.224647",
    "township": "华阳路街道"
  },
  {
    "name": "长一居民区党建服务站",
    "addr": "长宁支路176号201室",
    "phone": "52376329--",
    "type": "partybuild",
    "location": "121.425936,31.226480",
    "township": "华阳路街道"
  },
  {
    "name": "长二居民区党建服务站",
    "addr": "江苏北路111弄52号101室",
    "phone": "52376330--",
    "type": "partybuild",
    "location": "121.424684,31.224842",
    "township": "华阳路街道"
  },
  {
    "name": "长支二居民区党建服务站",
    "addr": "万航渡路1312弄55号101室",
    "phone": "52376533--",
    "type": "partybuild",
    "location": "121.423450,31.226303",
    "township": "华阳路街道"
  },
  {
    "name": "红庄居民区党建服务站",
    "addr": "法华镇路150弄1号",
    "phone": "52307061--",
    "type": "partybuild",
    "location": "121.432246,31.202706",
    "township": "新华路街道"
  },
  {
    "name": "利西居民区党建服务站",
    "addr": "利西路47弄31号103室",
    "phone": "62527066--",
    "type": "partybuild",
    "location": "121.431473,31.215162",
    "township": "江苏路街道"
  },
  {
    "name": "天山华庭居民区党建服务站",
    "addr": "威宁路458弄15号103室",
    "phone": "62082089--",
    "type": "partybuild",
    "location": "121.386351,31.217151",
    "township": "周家桥街道"
  },
  {
    "name": "DOHO创意产业园区党建服务点",
    "addr": "万航渡路2453号",
    "phone": "52738304--",
    "type": "partybuild",
    "location": "121.406419,31.220200",
    "township": "周家桥街道"
  },
  {
    "name": "新泾六村居民区党建服务站",
    "addr": "金钟路340弄36号102室",
    "phone": "52188704--",
    "type": "partybuild",
    "location": "121.366331,31.221436",
    "township": "北新泾街道"
  },
  {
    "name": "天山河畔居民区党建服务站",
    "addr": "水城路883弄12号底楼",
    "phone": "32082059--",
    "type": "partybuild",
    "location": "121.448211,31.222961",
    "township": "静安寺街道"
  },
  {
    "name": "威宁居民区党建服务站",
    "addr": "茅台路691弄1号102室",
    "phone": "62908543--",
    "type": "partybuild",
    "location": "121.387165,31.210322",
    "township": "仙霞新村街道"
  },
  {
    "name": "虹纺居民区党建服务站",
    "addr": "虹古路377弄30支弄18号103室",
    "phone": "62429637--",
    "type": "partybuild",
    "location": "121.388261,31.201840",
    "township": "仙霞新村街道"
  },
  {
    "name": "新顺居民区党建服务站",
    "addr": "虹桥路953弄72号102室",
    "phone": "62081553--",
    "type": "partybuild",
    "location": "121.419813,31.198588",
    "township": "虹桥街道"
  },
  {
    "name": "太阳广场",
    "addr": "仙霞路88号",
    "phone": "--",
    "type": "partybuild",
    "location": "121.403148,31.205070",
    "township": "虹桥街道"
  },
  {
    "name": "协泰中心",
    "addr": "遵义南路88号",
    "phone": "--",
    "type": "partybuild",
    "location": "121.406061,31.204518",
    "township": "虹桥街道"
  },
  {
    "name": "上海世贸商城",
    "addr": "延安西路2299号（兴义路99号）",
    "phone": "--",
    "type": "partybuild",
    "location": "121.399846,31.201354",
    "township": "虹桥街道"
  },
  {
    "name": "利星国际广场",
    "addr": "延安西路1339号",
    "phone": "--陈娟",
    "type": "partybuild",
    "location": "121.425000,31.210431",
    "township": "华阳路街道"
  },
  {
    "name": "长峰中心",
    "addr": "延安西路1088号",
    "phone": "--",
    "type": "partybuild",
    "location": "121.431040,31.211408",
    "township": "新华路街道"
  },
  {
    "name": "尚嘉中心",
    "addr": "仙霞路99号",
    "phone": "--于洋",
    "type": "partybuild",
    "location": "121.407106,31.205723",
    "township": "天山路街道"
  },
  {
    "name": "明旺大厦",
    "addr": "定西路739号",
    "phone": "--",
    "type": "partybuild",
    "location": "121.423830,31.207809",
    "township": "新华路街道"
  },
  {
    "name": "绿地商务大厦",
    "addr": "愚园路1240号",
    "phone": "--吴敏",
    "type": "partybuild",
    "location": "121.426126,31.220041",
    "township": "江苏路街道"
  },
  {
    "name": "舜元企业发展大厦",
    "addr": "江苏路398号",
    "phone": "--张彪",
    "type": "partybuild",
    "location": "121.430394,31.218524",
    "township": "江苏路街道"
  },
  {
    "name": "万宝国际广场",
    "addr": "延安西路500号",
    "phone": "--韩晓明",
    "type": "partybuild",
    "location": "121.436525,31.217646",
    "township": "江苏路街道"
  },
  {
    "name": "九尊大厦",
    "addr": "镇宁路9号",
    "phone": "--谷妍",
    "type": "partybuild",
    "location": "121.438537,31.215196",
    "township": "江苏路街道"
  },
  {
    "name": "安泰大楼",
    "addr": "遵义路107号",
    "phone": "--王欣",
    "type": "partybuild",
    "location": "121.406311,31.206722",
    "township": "天山路街道"
  },
  {
    "name": "古北财富中心二期",
    "addr": "虹桥路1438号",
    "phone": "--",
    "type": "partybuild",
    "location": "121.403268,31.197371",
    "township": "虹桥街道"
  },
  {
    "name": "德必昭航创意园区",
    "addr": "昭化路357号",
    "phone": "--朱少卿",
    "type": "partybuild",
    "location": "121.424323,31.211759",
    "township": "华阳路街道"
  },
  {
    "name": "上玩九厂商务楼",
    "addr": "延安西路1221号",
    "phone": "--",
    "type": "partybuild",
    "location": "121.427860,31.210864",
    "township": "华阳路街道"
  },
  {
    "name": "辽油大厦",
    "addr": "定西路1100号",
    "phone": "--霍翌晨",
    "type": "partybuild",
    "location": "121.423511,31.211777",
    "township": "华阳路街道"
  },
  {
    "name": "龙之梦雅仕大厦",
    "addr": "凯旋路369号",
    "phone": "--",
    "type": "partybuild",
    "location": "121.416161,31.216062",
    "township": "周家桥街道"
  },
  {
    "name": "申亚金融广场",
    "addr": "延安西路895号",
    "phone": "--张福堂",
    "type": "partybuild",
    "location": "121.432291,31.214563",
    "township": "江苏路街道"
  },
  {
    "name": "时代大厦",
    "addr": "番禺路390号",
    "phone": "--",
    "type": "partybuild",
    "location": "121.430058,31.203801",
    "township": "新华路街道"
  },
  {
    "name": "捷运大厦",
    "addr": "天山路600弄2号",
    "phone": "--李煜文、吴光宇",
    "type": "partybuild",
    "location": "121.397348,31.213365",
    "township": "天山路街道"
  },
  {
    "name": "华联发展大厦",
    "addr": "新华路728号",
    "phone": "--周琦",
    "type": "partybuild",
    "location": "121.417808,31.206332",
    "township": "新华路街道"
  },
  {
    "name": "鑫达商务楼",
    "addr": "协和路1158号；北翟路1178号",
    "phone": "--",
    "type": "partybuild",
    "location": "121.354787,31.224769",
    "township": "新泾镇"
  },
  {
    "name": "中山万博",
    "addr": "淮海西路666号",
    "phone": "--",
    "type": "partybuild",
    "location": "121.422547,31.197184",
    "township": "新华路街道"
  },
  {
    "name": "红坊国际文化艺术社区",
    "addr": "淮海西路570号",
    "phone": "--陈剑荣",
    "type": "partybuild",
    "location": "121.424072,31.198459",
    "township": "新华路街道"
  },
  {
    "name": "三川大楼",
    "addr": "淮海西路520号",
    "phone": "--",
    "type": "partybuild",
    "location": "121.424573,31.197994",
    "township": "新华路街道"
  },
  {
    "name": "凯利大厦",
    "addr": "淮海西路432号",
    "phone": "--",
    "type": "partybuild",
    "location": "121.426917,31.199259",
    "township": "新华路街道"
  },
  {
    "name": "名都公寓",
    "addr": "上海市长宁区安顺路83号",
    "phone": "--",
    "type": "partybuild",
    "location": "121.422725,31.201065",
    "township": "新华路街道"
  },
  {
    "name": "浦江大厦",
    "addr": "长宁安顺路89弄7号",
    "phone": "--",
    "type": "partybuild",
    "location": "121.422271,31.200809",
    "township": "新华路街道"
  },
  {
    "name": "锦海大厦",
    "addr": "安顺路89弄9号",
    "phone": "--",
    "type": "partybuild",
    "location": "121.422048,31.200274",
    "township": "新华路街道"
  },
  {
    "name": "凯旋公寓",
    "addr": "上海市长宁区安顺路139号",
    "phone": "--",
    "type": "partybuild",
    "location": "121.420311,31.201579",
    "township": "新华路街道"
  },
  {
    "name": "中山国际广场",
    "addr": "天山西路789号",
    "phone": "--",
    "type": "partybuild",
    "location": "121.355269,31.217911",
    "township": "新泾镇"
  },
  {
    "name": "远东国际广场",
    "addr": "仙霞路299(裙楼)、317(B)、319号(A)",
    "phone": "--孙震艺",
    "type": "partybuild",
    "location": "121.401924,31.206192",
    "township": "天山路街道"
  },
  {
    "name": "长宁科技大楼",
    "addr": "天山支路201号",
    "phone": "--李煜文、吴光宇",
    "type": "partybuild",
    "location": "121.396065,31.213609",
    "township": "天山路街道"
  },
  {
    "name": "金虹桥国际中心",
    "addr": "娄山关路533号",
    "phone": "--吴冬宇",
    "type": "partybuild",
    "location": "121.403146,31.208960",
    "township": "天山路街道"
  },
  {
    "name": "古北家乐福",
    "addr": "水城南路268号",
    "phone": "--",
    "type": "partybuild",
    "location": "121.393905,31.196601",
    "township": "虹桥街道"
  },
  {
    "name": "新苑宾馆",
    "addr": "虹桥路1900号",
    "phone": "--",
    "type": "partybuild",
    "location": "121.387620,31.197683",
    "township": "虹桥街道"
  },
  {
    "name": "广播大厦",
    "addr": "虹桥路1376号",
    "phone": "--",
    "type": "partybuild",
    "location": "121.407792,31.196741",
    "township": "虹桥街道"
  },
  {
    "name": "三湘大厦",
    "addr": "中山西路1243号",
    "phone": "--",
    "type": "partybuild",
    "location": "121.418142,31.194293",
    "township": "虹桥街道"
  },
  {
    "name": "维多利亚大厦",
    "addr": "荣华东道98号",
    "phone": "--",
    "type": "partybuild",
    "location": "121.396552,31.196071",
    "township": "虹桥街道"
  },
  {
    "name": "新业中心",
    "addr": "中山西路888号",
    "phone": "--",
    "type": "partybuild",
    "location": "121.412003,31.203818",
    "township": "虹桥街道"
  },
  {
    "name": "英达莱商务中心",
    "addr": "延安西路1146号甲",
    "phone": "--",
    "type": "partybuild",
    "location": "121.430628,31.210239",
    "township": "新华路街道"
  },
  {
    "name": "玉嘉大厦",
    "addr": "长宁区华山路1336号",
    "phone": "--",
    "type": "partybuild",
    "location": "121.432457,31.208737",
    "township": "新华路街道"
  },
  {
    "name": "仁达商务楼",
    "addr": "平武路38号",
    "phone": "--",
    "type": "partybuild",
    "location": "121.430239,31.208821",
    "township": "新华路街道"
  },
  {
    "name": "贵冠商务楼",
    "addr": "江苏路876号",
    "phone": "--",
    "type": "partybuild",
    "location": "121.433844,31.211577",
    "township": "新华路街道"
  },
  {
    "name": "龙之梦丽晶大厦",
    "addr": "延安西路1118号(1116)",
    "phone": "--",
    "type": "partybuild",
    "location": "121.430385,31.210920",
    "township": "新华路街道"
  },
  {
    "name": "盛源大厦",
    "addr": "番愚路3号",
    "phone": "--",
    "type": "partybuild",
    "location": "121.429605,31.204393",
    "township": "新华路街道"
  },
  {
    "name": "赛普商务中心",
    "addr": "番禺路383号",
    "phone": "--",
    "type": "partybuild",
    "location": "121.430186,31.204142",
    "township": "新华路街道"
  },
  {
    "name": "富宁大厦",
    "addr": "幸福路137号",
    "phone": "--",
    "type": "partybuild",
    "location": "121.431116,31.205603",
    "township": "新华路街道"
  },
  {
    "name": "兴国园区",
    "addr": "华山路1245号",
    "phone": "--",
    "type": "partybuild",
    "location": "121.433481,31.209879",
    "township": "新华路街道"
  },
  {
    "name": "财瑞大厦",
    "addr": "华山路1520弄15号",
    "phone": "--",
    "type": "partybuild",
    "location": "121.432883,31.205215",
    "township": "新华路街道"
  },
  {
    "name": "首信银都",
    "addr": "延安西路1160号",
    "phone": "--",
    "type": "partybuild",
    "location": "121.428748,31.209921",
    "township": "新华路街道"
  },
  {
    "name": "嘉利大厦",
    "addr": "延安西路1228弄2号",
    "phone": "--何秋萍",
    "type": "partybuild",
    "location": "121.427540,31.209861",
    "township": "新华路街道"
  },
  {
    "name": "久隆国际大厦",
    "addr": "番禺路483号",
    "phone": "--",
    "type": "partybuild",
    "location": "121.430389,31.203150",
    "township": "新华路街道"
  },
  {
    "name": "法华525创意园区",
    "addr": "法华镇路525号",
    "phone": "--",
    "type": "partybuild",
    "location": "121.425560,31.205039",
    "township": "新华路街道"
  },
  {
    "name": "虹桥银城",
    "addr": "中山西路933号",
    "phone": "--王亚",
    "type": "partybuild",
    "location": "121.413114,31.201754",
    "township": "天山路街道"
  },
  {
    "name": "晨讯科技大楼",
    "addr": "金钟路633号",
    "phone": "--",
    "type": "partybuild",
    "location": "121.359787,31.220103",
    "township": "新泾镇"
  },
  {
    "name": "新亚药业大厦",
    "addr": "江苏北路89号",
    "phone": "--窦克勤",
    "type": "partybuild",
    "location": "121.426170,31.224460",
    "township": "华阳路街道"
  },
  {
    "name": "鑫宁商务楼",
    "addr": "长宁路262号",
    "phone": "--",
    "type": "partybuild",
    "location": "121.427616,31.225213",
    "township": "华阳路街道"
  },
  {
    "name": "上海千禧海鸥大酒店",
    "addr": "延安西路2588号",
    "phone": "--",
    "type": "partybuild",
    "location": "121.394395,31.196999",
    "township": "虹桥街道"
  },
  {
    "name": "弘基创邑国际园",
    "addr": "愚园路1107号",
    "phone": "--程晨",
    "type": "partybuild",
    "location": "121.428307,31.218275",
    "township": "江苏路街道"
  },
  {
    "name": "国际企业会馆",
    "addr": "宣化路28号",
    "phone": "--马开献",
    "type": "partybuild",
    "location": "121.430434,31.217966",
    "township": "江苏路街道"
  },
  {
    "name": "联强国际科技园",
    "addr": "天山西路1068号",
    "phone": "--",
    "type": "partybuild",
    "location": "121.353794,31.219413",
    "township": "新泾镇"
  },
  {
    "name": "东方世纪大厦",
    "addr": "仙霞路345号",
    "phone": "--俞敏华",
    "type": "partybuild",
    "location": "121.397774,31.206066",
    "township": "仙霞新村街道"
  },
  {
    "name": "弘基休闲广场",
    "addr": "协和路1551、1571号",
    "phone": "--",
    "type": "partybuild",
    "location": "121.352252,31.230066",
    "township": "新泾镇"
  },
  {
    "name": "太平洋中心",
    "addr": "延安西路889号",
    "phone": "--程文漪",
    "type": "partybuild",
    "location": "121.432414,31.214772",
    "township": "江苏路街道"
  },
  {
    "name": "裕丰大厦",
    "addr": "延安西路777号",
    "phone": "--江琦",
    "type": "partybuild",
    "location": "121.434646,31.214075",
    "township": "江苏路街道"
  },
  {
    "name": "万科中心",
    "addr": "水城南路17号",
    "phone": "--",
    "type": "partybuild",
    "location": "121.393694,31.193960",
    "township": "虹桥街道"
  },
  {
    "name": "国峰大厦",
    "addr": "中山西路1279弄6号楼",
    "phone": "--",
    "type": "partybuild",
    "location": "121.420759,31.192357",
    "township": "虹桥街道"
  },
  {
    "name": "鑫达大厦",
    "addr": "仙霞路322号",
    "phone": "--钱晓磊",
    "type": "partybuild",
    "location": "121.398981,31.205529",
    "township": "仙霞新村街道"
  },
  {
    "name": "凯阳大厦",
    "addr": "上海市长宁区定西路788号",
    "phone": "--",
    "type": "partybuild",
    "location": "121.423922,31.209129",
    "township": "新华路街道"
  },
  {
    "name": "鸿申大厦",
    "addr": "长宁定西路710弄20号",
    "phone": "--",
    "type": "partybuild",
    "location": "121.424829,31.206811",
    "township": "新华路街道"
  },
  {
    "name": "映巷园区",
    "addr": "定西路727号",
    "phone": "--",
    "type": "partybuild",
    "location": "121.423587,31.207370",
    "township": "新华路街道"
  },
  {
    "name": "新华商务大楼",
    "addr": "长宁区定西路685号",
    "phone": "--",
    "type": "partybuild",
    "location": "121.423845,31.207109",
    "township": "新华路街道"
  },
  {
    "name": "大吉地商务大厦",
    "addr": "定西路657号",
    "phone": "--",
    "type": "partybuild",
    "location": "121.423671,31.206434",
    "township": "新华路街道"
  },
  {
    "name": "华融国际大厦",
    "addr": "延安西路1448弄1号",
    "phone": "--",
    "type": "partybuild",
    "location": "121.423200,31.208526",
    "township": "新华路街道"
  },
  {
    "name": "怡德大楼",
    "addr": "延安西路1538号",
    "phone": "--",
    "type": "partybuild",
    "location": "121.421293,31.208783",
    "township": "新华路街道"
  },
  {
    "name": "龙峰大厦",
    "addr": "延安西路1566号",
    "phone": "--",
    "type": "partybuild",
    "location": "121.420766,31.208522",
    "township": "新华路街道"
  },
  {
    "name": "增泽世贸大厦",
    "addr": "延安西路1590号",
    "phone": "--",
    "type": "partybuild",
    "location": "121.419882,31.208427",
    "township": "新华路街道"
  },
  {
    "name": "禾森大厦",
    "addr": "上海市长宁区延安西路1600号",
    "phone": "--",
    "type": "partybuild",
    "location": "121.419790,31.207997",
    "township": "新华路街道"
  },
  {
    "name": "华敏翰尊国际大厦",
    "addr": "延安西路726、728号",
    "phone": "--朱华清",
    "type": "partybuild",
    "location": "121.433366,31.214933",
    "township": "江苏路街道"
  },
  {
    "name": "思创大厦",
    "addr": "天山路600弄3号、4号",
    "phone": "--李煜文、吴光宇",
    "type": "partybuild",
    "location": "121.397226,31.213818",
    "township": "天山路街道"
  },
  {
    "name": "荣博商务",
    "addr": "仙霞路335号1号楼",
    "phone": "--",
    "type": "partybuild",
    "location": "121.398080,31.206609",
    "township": "仙霞新村街道"
  },
  {
    "name": "嘉麒大厦",
    "addr": "古北路666号",
    "phone": "--",
    "type": "partybuild",
    "location": "121.399644,31.205474",
    "township": "仙霞新村街道"
  },
  {
    "name": "同诠大厦",
    "addr": "古北路678号",
    "phone": "--",
    "type": "partybuild",
    "location": "121.399507,31.204864",
    "township": "仙霞新村街道"
  },
  {
    "name": "金桥大厦",
    "addr": "延安西路2077号",
    "phone": "--",
    "type": "partybuild",
    "location": "121.407526,31.203467",
    "township": "虹桥街道"
  },
  {
    "name": "锦明大厦",
    "addr": "遵义南路8号",
    "phone": "--",
    "type": "partybuild",
    "location": "121.406661,31.203863",
    "township": "虹桥街道"
  },
  {
    "name": "天虹大厦",
    "addr": "仙霞路80号",
    "phone": "--",
    "type": "partybuild",
    "location": "121.406159,31.204780",
    "township": "虹桥街道"
  },
  {
    "name": "新虹桥大厦",
    "addr": "娄山关路55号",
    "phone": "--王琳",
    "type": "partybuild",
    "location": "121.402682,31.202907",
    "township": "虹桥街道"
  },
  {
    "name": "新世纪广场",
    "addr": "兴义路48号",
    "phone": "--",
    "type": "partybuild",
    "location": "121.403209,31.204868",
    "township": "虹桥街道"
  },
  {
    "name": "仲盛金融中心",
    "addr": "延安西路2067号(仙霞路8号)",
    "phone": "--",
    "type": "partybuild",
    "location": "121.408252,31.203815",
    "township": "虹桥街道"
  },
  {
    "name": "德必易园",
    "addr": "安化路492号",
    "phone": "--符桢妮",
    "type": "partybuild",
    "location": "121.420300,31.215341",
    "township": "华阳路街道"
  },
  {
    "name": "泓鑫时尚广场",
    "addr": "天山路762号",
    "phone": "--于洋、朱志刚",
    "type": "partybuild",
    "location": "121.403249,31.211437",
    "township": "天山路街道"
  },
  {
    "name": "虹桥华庭",
    "addr": "古北路555弄底",
    "phone": "--陈佳妮",
    "type": "partybuild",
    "location": "121.400856,31.208401",
    "township": "天山路街道"
  },
  {
    "name": "上海国际贸易中心",
    "addr": "延安西路2201号",
    "phone": "--",
    "type": "partybuild",
    "location": "121.404610,31.202165",
    "township": "虹桥街道"
  },
  {
    "name": "华闻国际大厦",
    "addr": "中山西路999号",
    "phone": "--何益妹",
    "type": "partybuild",
    "location": "121.414493,31.199483",
    "township": "虹桥街道"
  },
  {
    "name": "东银中心",
    "addr": "红宝石路500号",
    "phone": "--左雪君、邵启颖",
    "type": "partybuild",
    "location": "121.400104,31.198155",
    "township": "虹桥街道"
  },
  {
    "name": "云都虹桥大厦",
    "addr": "中山西路930号",
    "phone": "--",
    "type": "partybuild",
    "location": "121.412603,31.200543",
    "township": "虹桥街道"
  },
  {
    "name": "美丽华商务中心",
    "addr": "长宁虹桥路1718号",
    "phone": "--",
    "type": "partybuild",
    "location": "121.401139,31.199233",
    "township": "虹桥街道"
  },
  {
    "name": "上海明珠大厦",
    "addr": "水城南路59号",
    "phone": "--",
    "type": "partybuild",
    "location": "121.393044,31.196735",
    "township": "虹桥街道"
  },
  {
    "name": "湘江大厦",
    "addr": "中山西路1265弄18号",
    "phone": "--",
    "type": "partybuild",
    "location": "121.420209,31.192693",
    "township": "虹桥街道"
  },
  {
    "name": "科美商务中心",
    "addr": "中山西路1245弄2号",
    "phone": "--",
    "type": "partybuild",
    "location": "121.418564,31.194222",
    "township": "虹桥街道"
  },
  {
    "name": "荣广大厦",
    "addr": "长顺路11号",
    "phone": "--",
    "type": "partybuild",
    "location": "121.417652,31.197675",
    "township": "虹桥街道"
  },
  {
    "name": "SOHO中山广场",
    "addr": "中山西路1055号",
    "phone": "--何益妹、徐佳捷",
    "type": "partybuild",
    "location": "121.415116,31.198405",
    "township": "虹桥街道"
  },
  {
    "name": "虹桥都市工业大厦",
    "addr": "中山西路1291号",
    "phone": "--",
    "type": "partybuild",
    "location": "121.420523,31.191260",
    "township": "虹桥街道"
  },
  {
    "name": "上海扬子江万丽大酒店",
    "addr": "延安西路2099号",
    "phone": "--",
    "type": "partybuild",
    "location": "121.405911,31.202794",
    "township": "虹桥街道"
  },
  {
    "name": "百科苑大楼",
    "addr": "仙霞路321号",
    "phone": "--",
    "type": "partybuild",
    "location": "121.399973,31.206025",
    "township": "仙霞新村街道"
  },
  {
    "name": "圣骊虹桥创意园",
    "addr": "虹桥路996弄161号",
    "phone": "--",
    "type": "partybuild",
    "location": "121.420854,31.193426",
    "township": "虹桥街道"
  },
  {
    "name": "百丽时尚中心",
    "addr": "中山西路1279弄2号楼",
    "phone": "--",
    "type": "partybuild",
    "location": "121.420392,31.192408",
    "township": "虹桥街道"
  },
  {
    "name": "丽晶大厦",
    "addr": "仙霞路28号",
    "phone": "--",
    "type": "partybuild",
    "location": "121.406847,31.204649",
    "township": "虹桥街道"
  },
  {
    "name": "上海新虹桥俱乐部",
    "addr": "娄山关路35号",
    "phone": "--",
    "type": "partybuild",
    "location": "121.402144,31.202981",
    "township": "虹桥街道"
  },
  {
    "name": "古北财富中心一期",
    "addr": "虹桥路1452号",
    "phone": "--",
    "type": "partybuild",
    "location": "121.401411,31.199287",
    "township": "虹桥街道"
  },
  {
    "name": "虹桥世家花园",
    "addr": "中山西路179号",
    "phone": "--吴咏梅",
    "type": "partybuild",
    "location": "121.411153,31.219615",
    "township": "周家桥街道"
  },
  {
    "name": "虹桥电子时代广场",
    "addr": "天山支路168号",
    "phone": "--吴咏梅",
    "type": "partybuild",
    "location": "121.396332,31.215235",
    "township": "周家桥街道"
  },
  {
    "name": "中田倍益商务楼",
    "addr": "武夷路697号",
    "phone": "--魏根印",
    "type": "partybuild",
    "location": "121.416962,31.212958",
    "township": "周家桥街道"
  },
  {
    "name": "绿洲大厦",
    "addr": "中山西路555号",
    "phone": "--魏根印",
    "type": "partybuild",
    "location": "121.412643,31.213921",
    "township": "周家桥街道"
  },
  {
    "name": "上海衡辰商业广场",
    "addr": "天山路338号",
    "phone": "--",
    "type": "partybuild",
    "location": "121.387263,31.215175",
    "township": "周家桥街道"
  },
  {
    "name": "弘基创邑河",
    "addr": "万航渡路2170号",
    "phone": "--",
    "type": "partybuild",
    "location": "121.410090,31.221911",
    "township": "周家桥街道"
  },
  {
    "name": "龙之梦万丽大厦",
    "addr": "长宁路1018号",
    "phone": "--李祥富",
    "type": "partybuild",
    "location": "121.417085,31.219017",
    "township": "华阳路街道"
  },
  {
    "name": "上海国际展览中心",
    "addr": "娄山关路88号",
    "phone": "--",
    "type": "partybuild",
    "location": "121.404065,31.203143",
    "township": "虹桥街道"
  },
  {
    "name": "文广大厦",
    "addr": "虹桥路1386号",
    "phone": "--",
    "type": "partybuild",
    "location": "121.406500,31.197750",
    "township": "虹桥街道"
  },
  {
    "name": "莫泰268",
    "addr": "中山西路906号",
    "phone": "--",
    "type": "partybuild",
    "location": "121.411912,31.202254",
    "township": "虹桥街道"
  },
  {
    "name": "交通银行大厦",
    "addr": "仙霞路18号",
    "phone": "--",
    "type": "partybuild",
    "location": "121.407736,31.204284",
    "township": "虹桥街道"
  },
  {
    "name": "吉盛伟邦虹桥国际家具博览中心",
    "addr": "娄山关路75号",
    "phone": "--",
    "type": "partybuild",
    "location": "121.402639,31.203953",
    "township": "虹桥街道"
  },
  {
    "name": "兆仪大厦",
    "addr": "定西路1281号",
    "phone": "--",
    "type": "partybuild",
    "location": "121.422308,31.215624",
    "township": "华阳路街道"
  },
  {
    "name": "汇都商务楼",
    "addr": "武夷路477号",
    "phone": "--",
    "type": "partybuild",
    "location": "121.420650,31.212964",
    "township": "华阳路街道"
  },
  {
    "name": "欣苑楼",
    "addr": "武夷路477号",
    "phone": "--",
    "type": "partybuild",
    "location": "121.420650,31.212964",
    "township": "华阳路街道"
  },
  {
    "name": "新联纺创意园区",
    "addr": "宣化路290号",
    "phone": "--",
    "type": "partybuild",
    "location": "121.424357,31.217254",
    "township": "华阳路街道"
  },
  {
    "name": "嘉春753园区",
    "addr": "愚园路753号",
    "phone": "--蒋正州",
    "type": "partybuild",
    "location": "121.434412,31.220259",
    "township": "江苏路街道"
  },
  {
    "name": "新东纺商务中心",
    "addr": "镇宁路525号",
    "phone": "--王岩方",
    "type": "partybuild",
    "location": "121.434986,31.224271",
    "township": "江苏路街道"
  },
  {
    "name": "东华创意园",
    "addr": "杨家宅199弄",
    "phone": "--",
    "type": "partybuild",
    "location": "121.277724,30.740558",
    "township": "金山卫镇"
  },
  {
    "name": "古北公寓",
    "addr": "古北路585号",
    "phone": "--吴冬宇",
    "type": "partybuild",
    "location": "121.400858,31.207060",
    "township": "天山路街道"
  },
  {
    "name": "虹桥假日广场",
    "addr": "娄山关路888号",
    "phone": "--",
    "type": "partybuild",
    "location": "121.405192,31.215176",
    "township": "天山路街道"
  },
  {
    "name": "天山商厦商住楼",
    "addr": "上海长宁区天山路789号",
    "phone": "--陈佳妮",
    "type": "partybuild",
    "location": "121.403536,31.210217",
    "township": "天山路街道"
  },
  {
    "name": "紫云大厦",
    "addr": "中山西路800弄55号",
    "phone": "--陈佳妮、吴菊珍",
    "type": "partybuild",
    "location": "121.410144,31.206354",
    "township": "天山路街道"
  },
  {
    "name": "紫虹大厦",
    "addr": "中山西路800弄57号",
    "phone": "--陈佳妮、吴菊珍",
    "type": "partybuild",
    "location": "121.409510,31.206166",
    "township": "天山路街道"
  },
  {
    "name": "上服商务大厦",
    "addr": "中山西路750号",
    "phone": "--陈佳妮",
    "type": "partybuild",
    "location": "121.411546,31.207822",
    "township": "天山路街道"
  },
  {
    "name": "久强大厦",
    "addr": "天山路601号",
    "phone": "--",
    "type": "partybuild",
    "location": "121.393849,31.212954",
    "township": "仙霞新村街道"
  },
  {
    "name": "星空广场",
    "addr": "虹桥路1665号",
    "phone": "--",
    "type": "partybuild",
    "location": "121.392716,31.200649",
    "township": "仙霞新村街道"
  },
  {
    "name": "东风工业园区",
    "addr": "凯旋路1205号",
    "phone": "--",
    "type": "partybuild",
    "location": "121.418704,31.203851",
    "township": "新华路街道"
  },
  {
    "name": "凯旋商务中心",
    "addr": "凯旋路1416号",
    "phone": "--",
    "type": "partybuild",
    "location": "121.420017,31.199964",
    "township": "新华路街道"
  },
  {
    "name": "天涯商务楼",
    "addr": "哈密路433号",
    "phone": "--",
    "type": "partybuild",
    "location": "121.373244,31.212563",
    "township": "新泾镇"
  },
  {
    "name": "创意之门",
    "addr": "万航渡路2453号",
    "phone": "--",
    "type": "partybuild",
    "location": "121.406419,31.220200",
    "township": "周家桥街道"
  },
  {
    "name": "安垦园区",
    "addr": "镇宁路465弄",
    "phone": "--",
    "type": "partybuild",
    "location": "121.433680,31.222560",
    "township": "江苏路街道"
  },
  {
    "name": "富都大厦",
    "addr": "宣化路299号",
    "phone": "--",
    "type": "partybuild",
    "location": "121.424409,31.217019",
    "township": "华阳路街道"
  },
  {
    "name": "创邑源",
    "addr": "凯旋路613号",
    "phone": "--",
    "type": "partybuild",
    "location": "121.416907,31.211343",
    "township": "周家桥街道"
  },
  {
    "name": "虹桥南丰城",
    "addr": "遵义路100号",
    "phone": "--于洋",
    "type": "partybuild",
    "location": "121.407427,31.207099",
    "township": "天山路街道"
  },
  {
    "name": "携程网络技术大楼",
    "addr": "福泉路99号",
    "phone": "--",
    "type": "partybuild",
    "location": "121.357561,31.219945",
    "township": "新泾镇"
  },
  {
    "name": "佳都大厦",
    "addr": "延安西路719号",
    "phone": "--蔡天斌",
    "type": "partybuild",
    "location": "121.434377,31.214665",
    "township": "江苏路街道"
  },
  {
    "name": "慧谷白猫科技园",
    "addr": "天山路641号",
    "phone": "--潘凌枫",
    "type": "partybuild",
    "location": "121.394813,31.212740",
    "township": "仙霞新村街道"
  },
  {
    "name": "东方国际大厦",
    "addr": "娄山关路85号",
    "phone": "--",
    "type": "partybuild",
    "location": "121.402398,31.205030",
    "township": "虹桥街道"
  },
  {
    "name": "万都中心",
    "addr": "兴义路8号",
    "phone": "--",
    "type": "partybuild",
    "location": "121.404256,31.205312",
    "township": "虹桥街道"
  },
  {
    "name": "新虹桥中心大厦",
    "addr": "娄山关路83号",
    "phone": "--",
    "type": "partybuild",
    "location": "121.404063,31.206196",
    "township": "天山路街道"
  },
  {
    "name": "虹桥天都",
    "addr": "天山路1111号",
    "phone": "--",
    "type": "partybuild",
    "location": "121.406882,31.210504",
    "township": "天山路街道"
  },
  {
    "name": "汇金百货",
    "addr": "天山路900号",
    "phone": "--",
    "type": "partybuild",
    "location": "121.404885,31.211854",
    "township": "天山路街道"
  },
  {
    "name": "长联大厦",
    "addr": "中山西路666号",
    "phone": "--",
    "type": "partybuild",
    "location": "121.411613,31.208451",
    "township": "天山路街道"
  },
  {
    "name": "皇家商务楼",
    "addr": "天山路1825号",
    "phone": "--",
    "type": "partybuild",
    "location": "121.410509,31.209523",
    "township": "天山路街道"
  },
  {
    "name": "天山茶城",
    "addr": "中山西路520号",
    "phone": "--王欣",
    "type": "partybuild",
    "location": "121.411070,31.213270",
    "township": "天山路街道"
  },
  {
    "name": "上海时尚园",
    "addr": "天山路1718号",
    "phone": "--吴冬宇",
    "type": "partybuild",
    "location": "121.408793,31.210905",
    "township": "天山路街道"
  },
  {
    "name": "铭晖商务楼",
    "addr": "哈密路442号",
    "phone": "--金莉娜",
    "type": "partybuild",
    "location": "121.374724,31.211898",
    "township": "新泾镇"
  },
  {
    "name": "尚联国际大楼",
    "addr": "江苏路828号",
    "phone": "--",
    "type": "partybuild",
    "location": "121.433711,31.212107",
    "township": "新华路街道"
  },
  {
    "name": "华联创意广场",
    "addr": "江苏北路125号",
    "phone": "--何拴虎",
    "type": "partybuild",
    "location": "121.424463,31.227299",
    "township": "华阳路街道"
  },
  {
    "name": "聚为园商务园区",
    "addr": "武夷路335号",
    "phone": "--刘道宇",
    "type": "partybuild",
    "location": "121.424151,31.213331",
    "township": "华阳路街道"
  },
  {
    "name": "长房国际广场",
    "addr": "天山路789号",
    "phone": "--孙震艺",
    "type": "partybuild",
    "location": "121.402674,31.210855",
    "township": "天山路街道"
  },
  {
    "name": "申菱大厦",
    "addr": "古北路507号",
    "phone": "--吴冬宇",
    "type": "partybuild",
    "location": "121.401171,31.208985",
    "township": "天山路街道"
  },
  {
    "name": "新时空国际商务广场",
    "addr": "汇川路91号",
    "phone": "--",
    "type": "partybuild",
    "location": "121.416938,31.216794",
    "township": "华阳路街道"
  },
  {
    "name": "联通大厦",
    "addr": "长宁路1033号",
    "phone": "--钱嫣佳",
    "type": "partybuild",
    "location": "121.417084,31.217647",
    "township": "华阳路街道"
  },
  {
    "name": "凯旋坊",
    "addr": "凯旋路166号",
    "phone": "--",
    "type": "partybuild",
    "location": "121.415612,31.220162",
    "township": "华阳路街道"
  },
  {
    "name": "花园大厦",
    "addr": "长宁路988号",
    "phone": "--",
    "type": "partybuild",
    "location": "121.417959,31.218909",
    "township": "华阳路街道"
  },
  {
    "name": "尚街loft长宁会馆",
    "addr": "长宁路546号",
    "phone": "--万天晓",
    "type": "partybuild",
    "location": "121.424701,31.222045",
    "township": "华阳路街道"
  },
  {
    "name": "湖丝栈创意产业园",
    "addr": "万航渡路1384弄12号",
    "phone": "--",
    "type": "partybuild",
    "location": "121.421873,31.225211",
    "township": "华阳路街道"
  },
  {
    "name": "日旭商务中心",
    "addr": "长宁路350号",
    "phone": "--",
    "type": "partybuild",
    "location": "121.427231,31.223945",
    "township": "华阳路街道"
  },
  {
    "name": "法华门大厦",
    "addr": "上海市长宁区法华镇路555号",
    "phone": "--",
    "type": "partybuild",
    "location": "121.424135,31.205554",
    "township": "新华路街道"
  },
  {
    "name": "尚盈文化园区",
    "addr": "新华路345号",
    "phone": "--",
    "type": "partybuild",
    "location": "121.425995,31.203052",
    "township": "新华路街道"
  },
  {
    "name": "东华大学科技园",
    "addr": "新华路365号",
    "phone": "--",
    "type": "partybuild",
    "location": "121.425199,31.202088",
    "township": "新华路街道"
  },
  {
    "name": "上生慧谷大厦",
    "addr": "延安西路1326号",
    "phone": "--",
    "type": "partybuild",
    "location": "121.425743,31.209646",
    "township": "新华路街道"
  },
  {
    "name": "迎龙大厦",
    "addr": "延安西路1358号",
    "phone": "--",
    "type": "partybuild",
    "location": "121.424714,31.209311",
    "township": "新华路街道"
  },
  {
    "name": "鑫汉森商务中心",
    "addr": "番禺路300弄7号",
    "phone": "--",
    "type": "partybuild",
    "location": "121.428811,31.204481",
    "township": "新华路街道"
  },
  {
    "name": "虹桥国际科技广场",
    "addr": "金钟路999号",
    "phone": "--",
    "type": "partybuild",
    "location": "121.351839,31.219589",
    "township": "新泾镇"
  },
  {
    "name": "东方维京大厦",
    "addr": "仙霞路333号",
    "phone": "--",
    "type": "partybuild",
    "location": "121.398874,31.206116",
    "township": "仙霞新村街道"
  },
  {
    "name": "汇中大厦",
    "addr": "延安西路1357号",
    "phone": "--",
    "type": "partybuild",
    "location": "121.424289,31.210283",
    "township": "华阳路街道"
  },
  {
    "name": "亨通国际大厦",
    "addr": "长宁路855号",
    "phone": "--陆庙芳",
    "type": "partybuild",
    "location": "121.420211,31.218531",
    "township": "华阳路街道"
  },
  {
    "name": "新长宁商务楼",
    "addr": "武夷路238号",
    "phone": "--",
    "type": "partybuild",
    "location": "121.425999,31.213263",
    "township": "华阳路街道"
  },
  {
    "name": "大众金融大厦",
    "addr": "延安西路1023号",
    "phone": "--高峰",
    "type": "partybuild",
    "location": "121.429608,31.212320",
    "township": "华阳路街道"
  },
  {
    "name": "华宁国际广场",
    "addr": "宣化路300号",
    "phone": "--宋福孟",
    "type": "partybuild",
    "location": "121.422749,31.217508",
    "township": "华阳路街道"
  },
  {
    "name": "武夷商务中心",
    "addr": "武夷路333号",
    "phone": "--刘道宇",
    "type": "partybuild",
    "location": "121.424135,31.213384",
    "township": "华阳路街道"
  },
  {
    "name": "铭光商务楼",
    "addr": "昭化路51号",
    "phone": "--陆浩呼",
    "type": "partybuild",
    "location": "121.424912,31.211940",
    "township": "华阳路街道"
  },
  {
    "name": "武夷坊",
    "addr": "定西路1118号",
    "phone": "--朱文俊",
    "type": "partybuild",
    "location": "121.423400,31.212136",
    "township": "华阳路街道"
  },
  {
    "name": "中澳万众商务大厦",
    "addr": "延安西路1303号",
    "phone": "--周时江",
    "type": "partybuild",
    "location": "121.426041,31.210552",
    "township": "华阳路街道"
  },
  {
    "name": "银统大厦北楼",
    "addr": "定西路1016号",
    "phone": "--李玮",
    "type": "partybuild",
    "location": "121.423835,31.210906",
    "township": "华阳路街道"
  },
  {
    "name": "大盈商务楼",
    "addr": "定西路1232号",
    "phone": "--顾雪芳",
    "type": "partybuild",
    "location": "121.422966,31.214341",
    "township": "华阳路街道"
  },
  {
    "name": "银统大厦南楼",
    "addr": "定西路988号",
    "phone": "--李玮",
    "type": "partybuild",
    "location": "121.423905,31.210375",
    "township": "华阳路街道"
  },
  {
    "name": "泛太大厦",
    "addr": "延安西路1221号",
    "phone": "--冯水富",
    "type": "partybuild",
    "location": "121.427860,31.210864",
    "township": "华阳路街道"
  },
  {
    "name": "馥邦大厦",
    "addr": "天山西路120号",
    "phone": "--邵君箐",
    "type": "partybuild",
    "location": "121.373229,31.217278",
    "township": "北新泾街道"
  },
  {
    "name": "百联西郊购物中心",
    "addr": "仙霞西路88号",
    "phone": "--陈捷",
    "type": "partybuild",
    "location": "121.369323,31.208886",
    "township": "新泾镇"
  },
  {
    "name": "东方商务楼",
    "addr": "番禺路586号",
    "phone": "--",
    "type": "partybuild",
    "location": "121.429570,31.200423",
    "township": "新华路街道"
  },
  {
    "name": "虹桥国际大厦",
    "addr": "遵义路829号",
    "phone": "--",
    "type": "partybuild",
    "location": "121.408660,31.216574",
    "township": "周家桥街道"
  },
  {
    "name": "福泰国际商务酒店",
    "addr": "伊犁路88号",
    "phone": "--",
    "type": "partybuild",
    "location": "121.407060,31.199830",
    "township": "虹桥街道"
  },
  {
    "name": "国药大厦",
    "addr": "中山西路1001号",
    "phone": "--",
    "type": "partybuild",
    "location": "121.414337,31.198808",
    "township": "虹桥街道"
  },
  {
    "name": "古北湾大酒店",
    "addr": "虹桥路1446号",
    "phone": "--",
    "type": "partybuild",
    "location": "121.401936,31.199153",
    "township": "虹桥街道"
  },
  {
    "name": "长裕大厦",
    "addr": "延安西路789号",
    "phone": "--江琦",
    "type": "partybuild",
    "location": "121.434357,31.213859",
    "township": "江苏路街道"
  },
  {
    "name": "兆丰世贸大厦",
    "addr": "江苏路369号",
    "phone": "--尹紫薇",
    "type": "partybuild",
    "location": "121.431488,31.218827",
    "township": "江苏路街道"
  },
  {
    "name": "中西大厦",
    "addr": "江苏路121-123号",
    "phone": "--王国强",
    "type": "partybuild",
    "location": "121.429428,31.223319",
    "township": "江苏路街道"
  },
  {
    "name": "兆丰大厦",
    "addr": "长宁路398号",
    "phone": "--",
    "type": "partybuild",
    "location": "121.426076,31.223498",
    "township": "华阳路街道"
  },
  {
    "name": "百脑通商务楼",
    "addr": "凯旋路1010号",
    "phone": "--",
    "type": "partybuild",
    "location": "121.417545,31.207522",
    "township": "新华路街道"
  },
  {
    "name": "万宝国际商务",
    "addr": "新华路660号",
    "phone": "--",
    "type": "partybuild",
    "location": "121.420463,31.205253",
    "township": "新华路街道"
  },
  {
    "name": "新华大厦",
    "addr": "新华路543号",
    "phone": "--",
    "type": "partybuild",
    "location": "121.422389,31.204311",
    "township": "新华路街道"
  },
  {
    "name": "长荣大厦",
    "addr": "新华路569弄68号",
    "phone": "--",
    "type": "partybuild",
    "location": "121.421785,31.203339",
    "township": "新华路街道"
  },
  {
    "name": "兆益科技园",
    "addr": "天山路8号",
    "phone": "--宗国宝",
    "type": "partybuild",
    "location": "121.377752,31.216406",
    "township": "北新泾街道"
  },
  {
    "name": "多媒体产业园",
    "addr": "长宁路1027号",
    "phone": "--",
    "type": "partybuild",
    "location": "121.417969,31.217832",
    "township": "华阳路街道"
  },
  {
    "name": "现代广场",
    "addr": "仙霞路369号",
    "phone": "--黄凯峰",
    "type": "partybuild",
    "location": "121.396541,31.206395",
    "township": "仙霞新村街道"
  },
  {
    "name": "玫瑰坊",
    "addr": "长宁路890号",
    "phone": "--沈培灿",
    "type": "partybuild",
    "location": "121.418839,31.219048",
    "township": "华阳路街道"
  },
  {
    "name": "澳伦传媒商务中心",
    "addr": "江苏北路30号",
    "phone": "--",
    "type": "partybuild",
    "location": "121.427302,31.224698",
    "township": "华阳路街道"
  },
  {
    "name": "宇航大厦",
    "addr": "长宁路1488弄10号",
    "phone": "--陆建平",
    "type": "partybuild",
    "location": "121.407637,31.218104",
    "township": "周家桥街道"
  },
  {
    "name": "兆丰广场",
    "addr": "长宁路999号",
    "phone": "--",
    "type": "partybuild",
    "location": "121.418639,31.217849",
    "township": "华阳路街道"
  },
  {
    "name": "盛高大厦",
    "addr": "仙霞路137号",
    "phone": "--王亚",
    "type": "partybuild",
    "location": "121.407526,31.203467",
    "township": "虹桥街道"
  },
  {
    "name": "同达创业大厦",
    "addr": "天山路600弄1号",
    "phone": "--李煜文、吴光宇",
    "type": "partybuild",
    "location": "121.396632,31.213177",
    "township": "天山路街道"
  },
  {
    "name": "上海纺织荣兆园区",
    "addr": "江苏北路30号",
    "phone": "--",
    "type": "partybuild",
    "location": "121.427302,31.224698",
    "township": "华阳路街道"
  },
  {
    "name": "新衡商务楼",
    "addr": "昭化路508弄50号",
    "phone": "--",
    "type": "partybuild",
    "location": "121.421621,31.211506",
    "township": "华阳路街道"
  },
  {
    "name": "上海虹桥友谊商城",
    "addr": "遵义南路6号",
    "phone": "--",
    "type": "partybuild",
    "location": "121.407293,31.204427",
    "township": "虹桥街道"
  },
  {
    "name": "上海虹桥喜来登太平洋大饭店",
    "addr": "遵义南路5号",
    "phone": "--",
    "type": "partybuild",
    "location": "121.405418,31.203559",
    "township": "虹桥街道"
  },
  {
    "name": "银尊大厦",
    "addr": "虹桥路1386号",
    "phone": "--",
    "type": "partybuild",
    "location": "121.406500,31.197750",
    "township": "虹桥街道"
  },
  {
    "name": "虹桥商务大厦",
    "addr": "虹桥路2270-2272号",
    "phone": "--潘金星",
    "type": "partybuild",
    "location": "121.376566,31.191639",
    "township": "程家桥街道"
  },
  {
    "name": "宜嘉坊商务楼",
    "addr": "天山西路165号",
    "phone": "--高智慧",
    "type": "partybuild",
    "location": "121.374030,31.216506",
    "township": "北新泾街道"
  },
  {
    "name": "天山大厦",
    "addr": "天山路30号",
    "phone": "--袁嘉婕",
    "type": "partybuild",
    "location": "121.379410,31.216193",
    "township": "北新泾街道"
  },
  {
    "name": "慧山科技园",
    "addr": "长宁路3333号",
    "phone": "--杨琉",
    "type": "partybuild",
    "location": "121.378451,31.219323",
    "township": "北新泾街道"
  },
  {
    "name": "海益商务大厦",
    "addr": "天山路310号",
    "phone": "--陈捷",
    "type": "partybuild",
    "location": "121.384810,31.215774",
    "township": "新泾镇"
  },
  {
    "name": "光华大厦",
    "addr": "茅台路868号",
    "phone": "--赵春烽",
    "type": "partybuild",
    "location": "121.383346,31.211370",
    "township": "新泾镇"
  },
  {
    "name": "天瑞大厦",
    "addr": "双流路31号",
    "phone": "--范昱枫",
    "type": "partybuild",
    "location": "121.380043,31.211971",
    "township": "新泾镇"
  },
  {
    "name": "天祥大厦",
    "addr": "茅台路1068号",
    "phone": "--",
    "type": "partybuild",
    "location": "121.378290,31.211213",
    "township": "新泾镇"
  },
  {
    "name": "海螺大厦",
    "addr": "中山西路1277号",
    "phone": "--",
    "type": "partybuild",
    "location": "121.419740,31.191827",
    "township": "虹桥街道"
  },
  {
    "name": "上海虹桥宾馆",
    "addr": "延安西路2000号",
    "phone": "--",
    "type": "partybuild",
    "location": "121.410122,31.204156",
    "township": "虹桥街道"
  },
  {
    "name": "时尚园",
    "addr": "北翟路163弄30号",
    "phone": "--",
    "type": "partybuild",
    "location": "121.323649,31.221445",
    "township": "新虹街道"
  },
  {
    "name": "DOHO创意产业园区",
    "addr": "万航渡路2452号",
    "phone": "--陆建平",
    "type": "partybuild",
    "location": "121.406223,31.220552",
    "township": "周家桥街道"
  },
  {
    "name": "上海市血液中心",
    "addr": "虹桥路1191号",
    "phone": "--",
    "type": "partybuild",
    "location": "121.407212,31.197958",
    "township": "虹桥街道"
  },
  {
    "name": "人民居委",
    "addr": "定西路710弄63号103室",
    "phone": "52307067--葛德云",
    "street": "",
    "type": "actcenter",
    "location": "121.425530,31.207676",
    "township": "新华路街道"
  },
  {
    "name": "",
    "addr": "定西路768弄1-2号一楼（东方金门会所）",
    "phone": "--",
    "street": "",
    "type": "actcenter",
    "location": "121.424379,31.208046",
    "township": "新华路街道"
  },
  {
    "name": "张家宅居委",
    "addr": "延安西路1020弄101室",
    "phone": "52550026--朱秋霞",
    "street": "",
    "type": "actcenter",
    "location": "121.400103,31.200811",
    "township": "虹桥街道"
  },
  {
    "name": "",
    "addr": "延安西路970弄91号弄内（车棚上）",
    "phone": "--",
    "street": "",
    "type": "actcenter",
    "location": "121.431707,31.212876",
    "township": "新华路街道"
  },
  {
    "name": "泰安居委",
    "addr": "兴国路244弄49支弄6号一楼",
    "phone": "52307055--吴蓓芬",
    "street": "",
    "type": "actcenter",
    "location": "121.436345,31.205746",
    "township": "新华路街道"
  },
  {
    "name": "",
    "addr": "蓝庭会所 湖南路565弄地下空间",
    "phone": "--",
    "street": "",
    "type": "actcenter",
    "location": "121.436011,31.168711",
    "township": "漕河泾街道"
  },
  {
    "name": "陈家巷居委",
    "addr": "淮海中路1984弄37号",
    "phone": "52307056--卢晓燕",
    "street": "",
    "type": "actcenter",
    "location": "121.436209,31.204320",
    "township": "新华路街道"
  },
  {
    "name": "",
    "addr": "淮海中路2006弄14号",
    "phone": "--",
    "street": "",
    "type": "actcenter",
    "location": "121.435468,31.203824",
    "township": "新华路街道"
  },
  {
    "name": "红庄居委",
    "addr": "淮海西路62号",
    "phone": "52307061--倪明",
    "street": "",
    "type": "actcenter",
    "location": "121.433647,31.201730",
    "township": "新华路街道"
  },
  {
    "name": "",
    "addr": "法华镇126号",
    "phone": "--",
    "street": "",
    "type": "actcenter",
    "location": "121.427835,31.204036",
    "township": "新华路街道"
  },
  {
    "name": "东镇居委",
    "addr": "华山路1520弄79号102、103",
    "phone": "52307057--卞勇杰",
    "street": "",
    "type": "actcenter",
    "location": "121.431960,31.205201",
    "township": "新华路街道"
  },
  {
    "name": "幸福居委",
    "addr": "番禺路385弄3号103室",
    "phone": "52307058--丁晨佳",
    "street": "",
    "type": "actcenter",
    "location": "121.430532,31.204112",
    "township": "新华路街道"
  },
  {
    "name": "",
    "addr": "番禺路215号",
    "phone": "--",
    "street": "",
    "type": "actcenter",
    "location": "121.429461,31.206378",
    "township": "新华路街道"
  },
  {
    "name": "牛桥居委",
    "addr": "番禺路222弄22号1楼、2楼",
    "phone": "52307064--王彦",
    "street": "",
    "type": "actcenter",
    "location": "121.427573,31.206574",
    "township": "新华路街道"
  },
  {
    "name": "番禺居委",
    "addr": "法华镇路310号一楼（新华路210弄8号晶采名人大厅）",
    "phone": "52307063--夏琦",
    "street": "",
    "type": "actcenter",
    "location": "121.428951,31.203330",
    "township": "新华路街道"
  },
  {
    "name": "",
    "addr": "法华镇路322号（新华路210弄15号101室）",
    "phone": "--",
    "street": "",
    "type": "actcenter",
    "location": "121.428716,31.203592",
    "township": "新华路街道"
  },
  {
    "name": "",
    "addr": "法华镇路457弄7号地下室",
    "phone": "--",
    "street": "",
    "type": "actcenter",
    "location": "121.426699,31.205585",
    "township": "新华路街道"
  },
  {
    "name": "香花居委",
    "addr": "香花桥活动室（法华镇路506号）",
    "phone": "52307065--张金辉",
    "street": "",
    "type": "actcenter",
    "location": "121.425666,31.204575",
    "township": "新华路街道"
  },
  {
    "name": "",
    "addr": "法华镇路525号活动室（德必创意园区）",
    "phone": "--",
    "street": "",
    "type": "actcenter",
    "location": "121.425560,31.205039",
    "township": "新华路街道"
  },
  {
    "name": "",
    "addr": "法华门活动室（法华镇路555号C座二楼）",
    "phone": "--",
    "street": "",
    "type": "actcenter",
    "location": "121.423881,31.205710",
    "township": "新华路街道"
  },
  {
    "name": "",
    "addr": "香榭苑物业活动室（香花桥路38号车库）",
    "phone": "--",
    "street": "",
    "type": "actcenter",
    "location": "121.425250,31.204414",
    "township": "新华路街道"
  },
  {
    "name": "",
    "addr": "百花村活动室（定西路630弄7号对面）",
    "phone": "--",
    "street": "",
    "type": "actcenter",
    "location": "121.424130,31.205027",
    "township": "新华路街道"
  },
  {
    "name": "西镇居委",
    "addr": "法华镇路751弄32号101",
    "phone": "52307073--沈华",
    "street": "",
    "type": "actcenter",
    "location": "121.421945,31.207878",
    "township": "新华路街道"
  },
  {
    "name": "",
    "addr": "法华镇路751弄6号",
    "phone": "--",
    "street": "",
    "type": "actcenter",
    "location": "121.421868,31.206513",
    "township": "新华路街道"
  },
  {
    "name": "杨宅居委",
    "addr": "法华镇路660弄23号102",
    "phone": "52307072--施慎淑",
    "street": "",
    "type": "actcenter",
    "location": "121.422609,31.205526",
    "township": "新华路街道"
  },
  {
    "name": "",
    "addr": "法华镇路792号12号旁",
    "phone": "--",
    "street": "",
    "type": "actcenter",
    "location": "121.420833,31.206423",
    "township": "新华路街道"
  },
  {
    "name": "",
    "addr": "万宝国际商务有限公司（新华路660弄一楼）",
    "phone": "--",
    "street": "",
    "type": "actcenter",
    "location": "121.436649,31.244930",
    "township": "长寿路街道"
  },
  {
    "name": "田渡居委",
    "addr": "新华路569弄106支弄9号101室",
    "phone": "52307069--沈英娣",
    "street": "",
    "type": "actcenter",
    "location": "121.420728,31.202467",
    "township": "新华路街道"
  },
  {
    "name": "",
    "addr": "新华路569弄106支弄6号101室",
    "phone": "--",
    "street": "",
    "type": "actcenter",
    "location": "121.420728,31.202467",
    "township": "新华路街道"
  },
  {
    "name": "",
    "addr": "新华路569弄99号地下室",
    "phone": "--",
    "street": "",
    "type": "actcenter",
    "location": "121.420384,31.202182",
    "township": "新华路街道"
  },
  {
    "name": "梅安居委",
    "addr": "新华路569弄60号",
    "phone": "52307071--陆东昇",
    "street": "",
    "type": "actcenter",
    "location": "121.421637,31.203903",
    "township": "新华路街道"
  },
  {
    "name": "",
    "addr": "新华路519号",
    "phone": "--",
    "street": "",
    "type": "actcenter",
    "location": "121.423036,31.204060",
    "township": "新华路街道"
  },
  {
    "name": "",
    "addr": "新华路593弄5号底层西北间",
    "phone": "--",
    "street": "",
    "type": "actcenter",
    "location": "121.421478,31.204074",
    "township": "新华路街道"
  },
  {
    "name": "",
    "addr": "新华路755号1楼2F",
    "phone": "--",
    "street": "",
    "type": "actcenter",
    "location": "121.418167,31.205249",
    "township": "新华路街道"
  },
  {
    "name": "",
    "addr": "定西路386号",
    "phone": "--",
    "street": "",
    "type": "actcenter",
    "location": "121.422886,31.202094",
    "township": "新华路街道"
  },
  {
    "name": "",
    "addr": "定西路420弄5号",
    "phone": "--",
    "street": "",
    "type": "actcenter",
    "location": "121.423685,31.202801",
    "township": "新华路街道"
  },
  {
    "name": "新华居委",
    "addr": "新华路345号3号楼一楼（萃馆）",
    "phone": "62948311--陈娟",
    "street": "",
    "type": "actcenter",
    "location": "121.425403,31.202059",
    "township": "新华路街道"
  },
  {
    "name": "",
    "addr": "新华路365弄1号一楼",
    "phone": "--",
    "street": "",
    "type": "actcenter",
    "location": "121.425377,31.202528",
    "township": "新华路街道"
  },
  {
    "name": "",
    "addr": "新华路393弄8号107室-110室",
    "phone": "--",
    "street": "",
    "type": "actcenter",
    "location": "121.424955,31.203059",
    "township": "新华路街道"
  },
  {
    "name": "左家宅居委",
    "addr": "安顺路89弄9号108-109室",
    "phone": "52307068--唐林翔",
    "street": "",
    "type": "actcenter",
    "location": "121.422048,31.200274",
    "township": "新华路街道"
  },
  {
    "name": "",
    "addr": "安顺路89弄11号104室",
    "phone": "--",
    "street": "",
    "type": "actcenter",
    "location": "121.421867,31.199834",
    "township": "新华路街道"
  },
  {
    "name": "",
    "addr": "淮海西路288弄1号2F淮海世纪花园物业",
    "phone": "--",
    "street": "",
    "type": "actcenter",
    "location": "121.428851,31.200134",
    "township": "新华路街道"
  },
  {
    "name": "",
    "addr": "淮海西路358弄淮海世纪苑4号活动室",
    "phone": "--",
    "street": "",
    "type": "actcenter",
    "location": "121.426071,31.199487",
    "township": "新华路街道"
  },
  {
    "name": "愚三居委",
    "addr": "安西路18号",
    "phone": "62525250--吴秋瑾",
    "street": "",
    "type": "actcenter",
    "location": "121.425336,31.219974",
    "township": "江苏路街道"
  },
  {
    "name": "",
    "addr": "愚园路1088弄48号二楼",
    "phone": "--",
    "street": "",
    "type": "actcenter",
    "location": "121.428218,31.219647",
    "township": "江苏路街道"
  },
  {
    "name": "长新居委",
    "addr": "长宁路491弄24号对面",
    "phone": "62512563--钟祺",
    "street": "",
    "type": "actcenter",
    "location": "121.427519,31.222349",
    "township": "江苏路街道"
  },
  {
    "name": "",
    "addr": "长宁路491弄27号",
    "phone": "--",
    "street": "",
    "type": "actcenter",
    "location": "121.426731,31.221897",
    "township": "江苏路街道"
  },
  {
    "name": "万村居委",
    "addr": "武定西路1371弄61号（临）",
    "phone": "18101815799--潘林城",
    "street": "",
    "type": "actcenter",
    "location": "121.431626,31.224182",
    "township": "江苏路街道"
  },
  {
    "name": "",
    "addr": "镇宁路465弄112号",
    "phone": "--",
    "street": "",
    "type": "actcenter",
    "location": "121.433662,31.222841",
    "township": "江苏路街道"
  },
  {
    "name": "",
    "addr": "愚园路1051号（市民中心）",
    "phone": "--",
    "street": "",
    "type": "actcenter",
    "location": "121.429206,31.218132",
    "township": "江苏路街道"
  },
  {
    "name": "江苏居委",
    "addr": "愚园路718弄33号",
    "phone": "62523377--蒋林芳",
    "street": "",
    "type": "actcenter",
    "location": "121.434967,31.221072",
    "township": "江苏路街道"
  },
  {
    "name": "",
    "addr": "愚园路718弄33号一楼",
    "phone": "--",
    "street": "",
    "type": "actcenter",
    "location": "121.434967,31.221072",
    "township": "江苏路街道"
  },
  {
    "name": "",
    "addr": "愚园路1051号（市民中心）",
    "phone": "--",
    "street": "",
    "type": "actcenter",
    "location": "121.429206,31.218132",
    "township": "江苏路街道"
  },
  {
    "name": "北汪居委",
    "addr": "东诸安浜路59号103室",
    "phone": "62521752--张小俭",
    "street": "",
    "type": "actcenter",
    "location": "121.435793,31.218307",
    "township": "江苏路街道"
  },
  {
    "name": "",
    "addr": "江苏路495弄12号",
    "phone": "--",
    "street": "",
    "type": "actcenter",
    "location": "121.432354,31.216782",
    "township": "江苏路街道"
  },
  {
    "name": "",
    "addr": "愚园路1051号（市民中心）",
    "phone": "--",
    "street": "",
    "type": "actcenter",
    "location": "121.429206,31.218132",
    "township": "江苏路街道"
  },
  {
    "name": "东浜居委",
    "addr": "东诸安浜路180弄19号",
    "phone": "15921066237--杨丽璟",
    "street": "",
    "type": "actcenter",
    "location": "121.432611,31.218819",
    "township": "江苏路街道"
  },
  {
    "name": "",
    "addr": "愚园路919号（愚园路阅读点）",
    "phone": "--",
    "street": "",
    "type": "actcenter",
    "location": "121.431826,31.219483",
    "township": "江苏路街道"
  },
  {
    "name": "",
    "addr": "愚园路1051号（市民中心）",
    "phone": "--",
    "street": "",
    "type": "actcenter",
    "location": "121.429206,31.218132",
    "township": "江苏路街道"
  },
  {
    "name": "岐山居委",
    "addr": "愚园路1032弄60号 （样板房）",
    "phone": "62524194--叶宏",
    "street": "",
    "type": "actcenter",
    "location": "121.429122,31.220383",
    "township": "江苏路街道"
  },
  {
    "name": "",
    "addr": "愚园路1032弄48号",
    "phone": "--",
    "street": "",
    "type": "actcenter",
    "location": "121.429435,31.220227",
    "township": "江苏路街道"
  },
  {
    "name": "",
    "addr": "愚园路1088弄48号二楼",
    "phone": "--",
    "street": "",
    "type": "actcenter",
    "location": "121.428218,31.219647",
    "township": "江苏路街道"
  },
  {
    "name": "福世居委",
    "addr": "宣化路227号101、102室",
    "phone": "13621909691--徐梦怡",
    "street": "",
    "type": "actcenter",
    "location": "121.425820,31.217051",
    "township": "江苏路街道"
  },
  {
    "name": "",
    "addr": "愚园路1051号（市民中心）",
    "phone": "--",
    "street": "",
    "type": "actcenter",
    "location": "121.429206,31.218132",
    "township": "江苏路街道"
  },
  {
    "name": "西浜居委",
    "addr": "江苏路502弄40支弄4号对面",
    "phone": "62525285--叶飞",
    "street": "",
    "type": "actcenter",
    "location": "121.431165,31.218433",
    "township": "江苏路街道"
  },
  {
    "name": "",
    "addr": "愚园路1051号（市民中心）",
    "phone": "--",
    "street": "",
    "type": "actcenter",
    "location": "121.429206,31.218132",
    "township": "江苏路街道"
  },
  {
    "name": "南汪居委",
    "addr": "延安西路649弄68号",
    "phone": "15921288331--费祥",
    "street": "",
    "type": "actcenter",
    "location": "121.434927,31.214953",
    "township": "江苏路街道"
  },
  {
    "name": "",
    "addr": "延安西路501弄旁舒欣屋",
    "phone": "--",
    "street": "",
    "type": "actcenter",
    "location": "121.400103,31.200811",
    "township": "虹桥街道"
  },
  {
    "name": "华山居委",
    "addr": "华山路800弄18号地下室",
    "phone": "62100255--陈颖",
    "street": "",
    "type": "actcenter",
    "location": "121.437770,31.213745",
    "township": "江苏路街道"
  },
  {
    "name": "",
    "addr": "华山路894弄1号102、105室",
    "phone": "--",
    "street": "",
    "type": "actcenter",
    "location": "121.438456,31.212593",
    "township": "江苏路街道"
  },
  {
    "name": "曹家堰居委",
    "addr": "昭化东路102号二楼",
    "phone": "13524702162--苏珺琰",
    "street": "",
    "type": "actcenter",
    "location": "121.435923,31.214002",
    "township": "江苏路街道"
  },
  {
    "name": "利西居委",
    "addr": "利西路230号101室",
    "phone": "13386174937--王婧",
    "street": "",
    "type": "actcenter",
    "location": "121.427318,31.214763",
    "township": "江苏路街道"
  },
  {
    "name": "",
    "addr": "愚园路1051号（市民中心）",
    "phone": "--",
    "street": "",
    "type": "actcenter",
    "location": "121.429206,31.218132",
    "township": "江苏路街道"
  },
  {
    "name": "苏一居委",
    "addr": "汇川路300弄576号102室",
    "phone": "32083562--尹升",
    "street": "",
    "type": "actcenter",
    "location": "121.417200,31.221811",
    "township": "华阳路街道"
  },
  {
    "name": "",
    "addr": "汇川路300弄588号二楼",
    "phone": "--",
    "street": "",
    "type": "actcenter",
    "location": "121.418122,31.221425",
    "township": "华阳路街道"
  },
  {
    "name": "",
    "addr": "长宁路888弄15号睦邻点",
    "phone": "--",
    "street": "",
    "type": "actcenter",
    "location": "121.419413,31.219563",
    "township": "华阳路街道"
  },
  {
    "name": "",
    "addr": "长宁路6号2801室",
    "phone": "--",
    "street": "",
    "type": "actcenter",
    "location": "121.415667,31.214720",
    "township": "周家桥街道"
  },
  {
    "name": "华院居委",
    "addr": "万航渡路1579弄2号对面",
    "phone": "52376326--张琦",
    "street": "",
    "type": "actcenter",
    "location": "121.416586,31.223737",
    "township": "华阳路街道"
  },
  {
    "name": "",
    "addr": "万航渡路1286号(青年中心350)",
    "phone": "--",
    "street": "",
    "type": "actcenter",
    "location": "121.422688,31.226757",
    "township": "华阳路街道"
  },
  {
    "name": "华五居委",
    "addr": "华阳路20弄10号",
    "phone": "52376325--王昱炜",
    "street": "",
    "type": "actcenter",
    "location": "121.419982,31.224824",
    "township": "华阳路街道"
  },
  {
    "name": "",
    "addr": "万航渡路1286号(青年中心350)",
    "phone": "--",
    "street": "",
    "type": "actcenter",
    "location": "121.422688,31.226757",
    "township": "华阳路街道"
  },
  {
    "name": "华二居委",
    "addr": "万航渡路1298弄1号楼二楼",
    "phone": "52376512--姚轶",
    "street": "",
    "type": "actcenter",
    "location": "121.422660,31.226674",
    "township": "华阳路街道"
  },
  {
    "name": "长一居委",
    "addr": "长宁路118号",
    "phone": "80110069--曹怡",
    "street": "",
    "type": "actcenter",
    "location": "121.426746,31.227117",
    "township": "华阳路街道"
  },
  {
    "name": "",
    "addr": "长宁支路190弄二楼",
    "phone": "--",
    "street": "",
    "type": "actcenter",
    "location": "121.423627,31.223073",
    "township": "华阳路街道"
  },
  {
    "name": "长支二居委",
    "addr": "长宁支路176号202室",
    "phone": "80110071--黄明月",
    "street": "",
    "type": "actcenter",
    "location": "121.425936,31.226480",
    "township": "华阳路街道"
  },
  {
    "name": "",
    "addr": "江苏北路119弄底层",
    "phone": "--",
    "street": "",
    "type": "actcenter",
    "location": "121.425497,31.225663",
    "township": "华阳路街道"
  },
  {
    "name": "",
    "addr": "江苏北路88弄8号（阳光之家60）",
    "phone": "--",
    "street": "",
    "type": "actcenter",
    "location": "121.431998,31.223446",
    "township": "江苏路街道"
  },
  {
    "name": "长二居委",
    "addr": "江苏北路111弄21号底楼",
    "phone": "52376330--张海栋",
    "street": "",
    "type": "actcenter",
    "location": "121.425311,31.224533",
    "township": "华阳路街道"
  },
  {
    "name": "",
    "addr": "长宁路378号一楼",
    "phone": "--",
    "street": "",
    "type": "actcenter",
    "location": "121.426699,31.224103",
    "township": "华阳路街道"
  },
  {
    "name": "秀水居委",
    "addr": "万航渡路1424弄21号对面",
    "phone": "52376327--成莉",
    "street": "",
    "type": "actcenter",
    "location": "121.422877,31.224647",
    "township": "华阳路街道"
  },
  {
    "name": "",
    "addr": "长宁路396弄79号 （社区综合为老服务中心在建中）",
    "phone": "--",
    "street": "",
    "type": "actcenter",
    "location": "121.424991,31.223630",
    "township": "华阳路街道"
  },
  {
    "name": "华一居委",
    "addr": "长宁路476弄金谷苑自治家园",
    "phone": "80110065--张倩",
    "street": "",
    "type": "actcenter",
    "location": "121.425957,31.223038",
    "township": "华阳路街道"
  },
  {
    "name": "",
    "addr": "长宁路476弄金谷苑8号楼103—104室",
    "phone": "--",
    "street": "",
    "type": "actcenter",
    "location": "121.425728,31.223016",
    "township": "华阳路街道"
  },
  {
    "name": "华三居委",
    "addr": "华阳路235号",
    "phone": "52376323--徐彬",
    "street": "",
    "type": "actcenter",
    "location": "121.423443,31.222306",
    "township": "华阳路街道"
  },
  {
    "name": "",
    "addr": "★长宁路396弄79号 （社区综合为老服务中心在建中）",
    "phone": "--",
    "street": "",
    "type": "actcenter",
    "location": "121.424991,31.223630",
    "township": "华阳路街道"
  },
  {
    "name": "华四居委",
    "addr": "长宁路712弄48号一楼",
    "phone": "52376320--吴文婷",
    "street": "",
    "type": "actcenter",
    "location": "121.422924,31.221173",
    "township": "华阳路街道"
  },
  {
    "name": "",
    "addr": "华阳路298弄3号一楼",
    "phone": "--",
    "street": "",
    "type": "actcenter",
    "location": "121.423391,31.221896",
    "township": "华阳路街道"
  },
  {
    "name": "",
    "addr": "长宁路666弄4号楼边上二楼",
    "phone": "--",
    "street": "",
    "type": "actcenter",
    "location": "121.423218,31.220917",
    "township": "华阳路街道"
  },
  {
    "name": "姚家角居委",
    "addr": "宣化路268弄12号一楼",
    "phone": "52376530--郑燕",
    "street": "",
    "type": "actcenter",
    "location": "121.425163,31.217296",
    "township": "华阳路街道"
  },
  {
    "name": "",
    "addr": "愚园路1355弄16号底楼",
    "phone": "--",
    "street": "",
    "type": "actcenter",
    "location": "121.423307,31.217903",
    "township": "华阳路街道"
  },
  {
    "name": "",
    "addr": "愚园路1423弄84号居委会2楼活动室",
    "phone": "--",
    "street": "",
    "type": "actcenter",
    "location": "121.419471,31.137855",
    "township": "凌云路街道"
  },
  {
    "name": "建宁居委",
    "addr": "定西路1310弄8号107室",
    "phone": "80110051--张莉",
    "street": "",
    "type": "actcenter",
    "location": "121.422797,31.216810",
    "township": "华阳路街道"
  },
  {
    "name": "",
    "addr": "安西路500弄5号",
    "phone": "--",
    "street": "",
    "type": "actcenter",
    "location": "121.425025,31.215808",
    "township": "华阳路街道"
  },
  {
    "name": "潘中居委",
    "addr": "定西路1235弄7号",
    "phone": "52376513--杨桦",
    "street": "",
    "type": "actcenter",
    "location": "121.422511,31.214344",
    "township": "华阳路街道"
  },
  {
    "name": "",
    "addr": "安化路500号副楼（华阳益家150）",
    "phone": "--",
    "street": "",
    "type": "actcenter",
    "location": "121.420187,31.215878",
    "township": "华阳路街道"
  },
  {
    "name": "潘西居委",
    "addr": "武夷路519弄59号一、三楼",
    "phone": "52376516--李娜",
    "street": "",
    "type": "actcenter",
    "location": "121.419444,31.213499",
    "township": "华阳路街道"
  },
  {
    "name": "",
    "addr": "定西路1279号一楼",
    "phone": "--",
    "street": "",
    "type": "actcenter",
    "location": "121.421388,31.215878",
    "township": "华阳路街道"
  },
  {
    "name": "潘东居委",
    "addr": "武夷路311弄15号一楼",
    "phone": "52376522--吴蕴怡",
    "street": "",
    "type": "actcenter",
    "location": "121.424393,31.214048",
    "township": "华阳路街道"
  },
  {
    "name": "徐家宅居委",
    "addr": "昭化路88号后门",
    "phone": "52376529--许秋晨",
    "street": "",
    "type": "actcenter",
    "location": "121.427561,31.211526",
    "township": "华阳路街道"
  },
  {
    "name": "",
    "addr": "昭化路60弄1号101室",
    "phone": "--",
    "street": "",
    "type": "actcenter",
    "location": "121.428950,31.212441",
    "township": "华阳路街道"
  },
  {
    "name": "",
    "addr": "武夷路311弄15号一楼（第一网格邻里中心100）",
    "phone": "--",
    "street": "",
    "type": "actcenter",
    "location": "121.424393,31.214048",
    "township": "华阳路街道"
  },
  {
    "name": "飞乐居委",
    "addr": "昭化路321号2楼（新址在建中）",
    "phone": "52376582--汪洁",
    "street": "",
    "type": "actcenter",
    "location": "121.425527,31.211950",
    "township": "华阳路街道"
  },
  {
    "name": "天诚居委",
    "addr": "武夷路450弄7号101—104室",
    "phone": "52376532--欧阳艳",
    "street": "",
    "type": "actcenter",
    "location": "121.421447,31.212097",
    "township": "华阳路街道"
  },
  {
    "name": "",
    "addr": "武夷路416弄1号102室",
    "phone": "--",
    "street": "",
    "type": "actcenter",
    "location": "121.422014,31.212554",
    "township": "华阳路街道"
  },
  {
    "name": "陶家宅居委",
    "addr": "昭化路518弄13号105室",
    "phone": "52376531--卢政卿",
    "street": "",
    "type": "actcenter",
    "location": "121.420407,31.210787",
    "township": "华阳路街道"
  },
  {
    "name": "",
    "addr": "延安西路1547弄8号底楼",
    "phone": "--",
    "street": "",
    "type": "actcenter",
    "location": "121.420559,31.209697",
    "township": "华阳路街道"
  },
  {
    "name": "",
    "addr": "昭化路508弄50号二楼",
    "phone": "--",
    "street": "",
    "type": "actcenter",
    "location": "121.421621,31.211506",
    "township": "华阳路街道"
  },
  {
    "name": "西一居委",
    "addr": "汇川路78号",
    "phone": "52736900--龚一帆",
    "street": "",
    "type": "actcenter",
    "location": "121.417491,31.216473",
    "township": "华阳路街道"
  },
  {
    "name": "",
    "addr": "定西路1507号顶楼",
    "phone": "--",
    "street": "",
    "type": "actcenter",
    "location": "121.421711,31.217289",
    "township": "华阳路街道"
  },
  {
    "name": "",
    "addr": "长宁路969号804室",
    "phone": "--",
    "street": "",
    "type": "actcenter",
    "location": "121.419706,31.217562",
    "township": "华阳路街道"
  },
  {
    "name": "范北居委会",
    "addr": "长宁路1302弄73支弄10号105室",
    "phone": "13818333282--许雯婷",
    "street": "",
    "type": "actcenter",
    "location": "121.413611,31.220332",
    "township": "周家桥街道"
  },
  {
    "name": "",
    "addr": "万航渡路2036号",
    "phone": "--",
    "street": "",
    "type": "actcenter",
    "location": "121.413287,31.222575",
    "township": "周家桥街道"
  },
  {
    "name": "大家源居委",
    "addr": "万航渡路2088弄4号103室",
    "phone": "13774246263--夏林",
    "street": "",
    "type": "actcenter",
    "location": "121.411760,31.222124",
    "township": "周家桥街道"
  },
  {
    "name": "",
    "addr": "万航渡路2088弄东门",
    "phone": "--",
    "street": "",
    "type": "actcenter",
    "location": "121.413725,31.221481",
    "township": "周家桥街道"
  },
  {
    "name": "",
    "addr": "中山西路189弄6号地下室",
    "phone": "--",
    "street": "",
    "type": "actcenter",
    "location": "121.411720,31.220151",
    "township": "周家桥街道"
  },
  {
    "name": "长宁新城居委",
    "addr": "长宁路1188弄7号一楼",
    "phone": "13801738860--唐雯",
    "street": "",
    "type": "actcenter",
    "location": "121.413947,31.218792",
    "township": "周家桥街道"
  },
  {
    "name": "",
    "addr": "长宁路1188弄5号会所旁业主活动室",
    "phone": "--",
    "street": "",
    "type": "actcenter",
    "location": "121.413853,31.217910",
    "township": "周家桥街道"
  },
  {
    "name": "",
    "addr": "长宁路1318弄5号一楼业主活动室",
    "phone": "--",
    "street": "",
    "type": "actcenter",
    "location": "121.411963,31.218545",
    "township": "周家桥街道"
  },
  {
    "name": "中山公寓居委",
    "addr": "长宁路1277弄19号旁附楼",
    "phone": "13817525653--陈明易",
    "street": "",
    "type": "actcenter",
    "location": "121.411575,31.216382",
    "township": "周家桥街道"
  },
  {
    "name": "",
    "addr": "长宁路1277弄10号101室",
    "phone": "--",
    "street": "",
    "type": "actcenter",
    "location": "121.412394,31.216201",
    "township": "周家桥街道"
  },
  {
    "name": "中四居委",
    "addr": "长宁路1135弄124号旁",
    "phone": "18121115936--李杰",
    "street": "",
    "type": "actcenter",
    "location": "121.411784,31.215377",
    "township": "周家桥街道"
  },
  {
    "name": "中五居委",
    "addr": "武夷路711号门面房",
    "phone": "18601632330--王锡峰",
    "street": "",
    "type": "actcenter",
    "location": "121.429389,31.213621",
    "township": "华阳路街道"
  },
  {
    "name": "武夷居委",
    "addr": "武夷路700弄1号103室",
    "phone": "13472624635--薛诺",
    "street": "",
    "type": "actcenter",
    "location": "121.416925,31.212617",
    "township": "周家桥街道"
  },
  {
    "name": "",
    "addr": "中山西路699弄5号1楼",
    "phone": "--",
    "street": "",
    "type": "actcenter",
    "location": "121.413220,31.210852",
    "township": "周家桥街道"
  },
  {
    "name": "沈家郎居委会",
    "addr": "长宁路1488弄20号",
    "phone": "13611608147--余雯",
    "street": "",
    "type": "actcenter",
    "location": "121.409328,31.218174",
    "township": "周家桥街道"
  },
  {
    "name": "",
    "addr": "长宁路1488弄24号104室",
    "phone": "--",
    "street": "",
    "type": "actcenter",
    "location": "121.409209,31.218290",
    "township": "周家桥街道"
  },
  {
    "name": "周一居委",
    "addr": "万航渡路2505弄23弄103-104室",
    "phone": "13564487996--何紫薇",
    "street": "",
    "type": "actcenter",
    "location": "121.443292,31.224521",
    "township": "静安寺街道"
  },
  {
    "name": "",
    "addr": "万航渡路2505弄18号",
    "phone": "--",
    "street": "",
    "type": "actcenter",
    "location": "121.407168,31.219284",
    "township": "周家桥街道"
  },
  {
    "name": "周二居委",
    "addr": "遵义路800弄15号旁",
    "phone": "15000924891--曹芝玮",
    "street": "",
    "type": "actcenter",
    "location": "121.409009,31.215433",
    "township": "天山路街道"
  },
  {
    "name": "",
    "addr": "长宁路1447号东底楼周二居委会对面",
    "phone": "--",
    "street": "",
    "type": "actcenter",
    "location": "121.409662,31.216883",
    "township": "周家桥街道"
  },
  {
    "name": "上海花城居委",
    "addr": "长宁路1818弄44号101室",
    "phone": "13817862649--褚舟",
    "street": "",
    "type": "actcenter",
    "location": "121.404935,31.220290",
    "township": "周家桥街道"
  },
  {
    "name": "",
    "addr": "长宁路1818弄44号102室",
    "phone": "--",
    "street": "",
    "type": "actcenter",
    "location": "121.404935,31.220290",
    "township": "周家桥街道"
  },
  {
    "name": "虹桥新城居委",
    "addr": "长宁路1661弄20号10室",
    "phone": "13564298670--王含舲",
    "street": "",
    "type": "actcenter",
    "location": "121.407048,31.217097",
    "township": "周家桥街道"
  },
  {
    "name": "",
    "addr": "长宁路1661弄20号304室",
    "phone": "--",
    "street": "",
    "type": "actcenter",
    "location": "121.407048,31.217097",
    "township": "周家桥街道"
  },
  {
    "name": "",
    "addr": "长宁路1661弄20号308室",
    "phone": "--",
    "street": "",
    "type": "actcenter",
    "location": "121.407048,31.217097",
    "township": "周家桥街道"
  },
  {
    "name": "春天花园居委",
    "addr": "娄山关路999弄75号底楼",
    "phone": "13611639267--牧燕",
    "street": "",
    "type": "actcenter",
    "location": "121.403466,31.217869",
    "township": "周家桥街道"
  },
  {
    "name": "",
    "addr": "娄山关路999弄76号底楼",
    "phone": "--",
    "street": "",
    "type": "actcenter",
    "location": "121.404243,31.217819",
    "township": "周家桥街道"
  },
  {
    "name": "虹桥万博花园居委",
    "addr": "古北路69弄1号2楼",
    "phone": "13816833513--倪琲琼",
    "street": "",
    "type": "actcenter",
    "location": "121.400033,31.217117",
    "township": "周家桥街道"
  },
  {
    "name": "锦屏居委",
    "addr": "娄山关路969弄3号102室",
    "phone": "13916181557--杨雅美",
    "street": "",
    "type": "actcenter",
    "location": "121.404602,31.215330",
    "township": "周家桥街道"
  },
  {
    "name": "",
    "addr": "娄山关路969弄903号",
    "phone": "--",
    "street": "",
    "type": "actcenter",
    "location": "121.404605,31.215134",
    "township": "周家桥街道"
  },
  {
    "name": "杨家宅居委",
    "addr": "锦屏路10弄8号103室",
    "phone": "13044634548--黄林增",
    "street": "",
    "type": "actcenter",
    "location": "121.401594,31.215939",
    "township": "周家桥街道"
  },
  {
    "name": "古南居委",
    "addr": "天山支路100弄4号103室",
    "phone": "13482656230--吉燕娜",
    "street": "",
    "type": "actcenter",
    "location": "121.397987,31.215246",
    "township": "周家桥街道"
  },
  {
    "name": "",
    "addr": "天山支路138弄10号底楼",
    "phone": "--",
    "street": "",
    "type": "actcenter",
    "location": "121.397255,31.215478",
    "township": "周家桥街道"
  },
  {
    "name": "新天地河滨花园居委",
    "addr": "芙蓉江路555弄14号102室",
    "phone": "15317260292--石亮",
    "street": "",
    "type": "actcenter",
    "location": "121.397386,31.216818",
    "township": "周家桥街道"
  },
  {
    "name": "仁恒河滨花园居委",
    "addr": "芙蓉江路388弄20号101室",
    "phone": "13761246890--张妍斐",
    "street": "",
    "type": "actcenter",
    "location": "121.393529,31.216765",
    "township": "周家桥街道"
  },
  {
    "name": "",
    "addr": "芙蓉江路388弄20号B1室",
    "phone": "--",
    "street": "",
    "type": "actcenter",
    "location": "121.393529,31.216765",
    "township": "周家桥街道"
  },
  {
    "name": "天山河畔花园居委",
    "addr": "水城路883弄12-13楼底楼",
    "phone": "18939959703--曹小萍",
    "street": "",
    "type": "actcenter",
    "location": "121.448211,31.222961",
    "township": "静安寺街道"
  },
  {
    "name": "",
    "addr": "水城路883弄12号楼地下1层乒乓房",
    "phone": "--",
    "street": "",
    "type": "actcenter",
    "location": "121.448211,31.222961",
    "township": "静安寺街道"
  },
  {
    "name": "",
    "addr": "水城路883弄15号楼地下1层活动室",
    "phone": "--",
    "street": "",
    "type": "actcenter",
    "location": "121.390214,31.215815",
    "township": "周家桥街道"
  },
  {
    "name": "天山华庭居委会",
    "addr": "威宁路458弄15号103室",
    "phone": "13482565196--张莹",
    "street": "",
    "type": "actcenter",
    "location": "121.386351,31.217151",
    "township": "周家桥街道"
  },
  {
    "name": "",
    "addr": "威宁路488号",
    "phone": "--",
    "street": "",
    "type": "actcenter",
    "location": "121.386106,31.216982",
    "township": "周家桥街道"
  },
  {
    "name": "纺大居委",
    "addr": "安顺路220弄38号侧门",
    "phone": "62098477--朱辞源",
    "street": "",
    "type": "actcenter",
    "location": "121.415566,31.201432",
    "township": "天山路街道"
  },
  {
    "name": "",
    "addr": "安顺路220弄24号103室",
    "phone": "--",
    "street": "",
    "type": "actcenter",
    "location": "121.415504,31.201091",
    "township": "天山路街道"
  },
  {
    "name": "",
    "addr": "中山西路945弄小区内",
    "phone": "--",
    "street": "",
    "type": "actcenter",
    "location": "121.502447,31.272961",
    "township": "嘉兴路街道"
  },
  {
    "name": "",
    "addr": "新安公寓地下室",
    "phone": "--",
    "street": "",
    "type": "actcenter",
    "location": "121.417847,31.202312",
    "township": "天山路街道"
  },
  {
    "name": "延西居委",
    "addr": "天山路1890弄21号楼对面",
    "phone": "62080488--顾毅琼",
    "street": "",
    "type": "actcenter",
    "location": "121.414006,31.210340",
    "township": "天山路街道"
  },
  {
    "name": "",
    "addr": "天山路1890弄11号对面",
    "phone": "--",
    "street": "",
    "type": "actcenter",
    "location": "121.413925,31.210099",
    "township": "天山路街道"
  },
  {
    "name": "友谊居委",
    "addr": "玉屏南路113弄10号",
    "phone": "13916167150--孙维娜",
    "street": "",
    "type": "actcenter",
    "location": "121.409043,31.212459",
    "township": "天山路街道"
  },
  {
    "name": "",
    "addr": "玉屏南路41弄45号",
    "phone": "--",
    "street": "",
    "type": "actcenter",
    "location": "121.411436,31.211996",
    "township": "天山路街道"
  },
  {
    "name": "",
    "addr": "玉屏南路113弄28号",
    "phone": "--",
    "street": "",
    "type": "actcenter",
    "location": "121.409060,31.211980",
    "township": "天山路街道"
  },
  {
    "name": "联建居委",
    "addr": "联建新村11号临一楼；201室",
    "phone": "62416506--孙宇辰",
    "street": "",
    "type": "actcenter",
    "location": "121.409536,31.205520",
    "township": "天山路街道"
  },
  {
    "name": "",
    "addr": "延安西路2055弄民航大院内",
    "phone": "--",
    "street": "",
    "type": "actcenter",
    "location": "121.409490,31.204700",
    "township": "天山路街道"
  },
  {
    "name": "天山二村居委",
    "addr": "天山二村38号乙2楼",
    "phone": "62293386--贾琳桦",
    "street": "",
    "type": "actcenter",
    "location": "121.404865,31.210289",
    "township": "天山路街道"
  },
  {
    "name": "",
    "addr": "天山二村64号1楼",
    "phone": "--",
    "street": "",
    "type": "actcenter",
    "location": "121.404708,31.209892",
    "township": "天山路街道"
  },
  {
    "name": "",
    "addr": "天山二村42号对面老年乐园",
    "phone": "--",
    "street": "",
    "type": "actcenter",
    "location": "121.405983,31.210103",
    "township": "天山路街道"
  },
  {
    "name": "天山四村居委",
    "addr": "天山四村151-1",
    "phone": "62286198--田晓芸",
    "street": "",
    "type": "actcenter",
    "location": "121.403135,31.212412",
    "township": "天山路街道"
  },
  {
    "name": "",
    "addr": "天山四村124号对面",
    "phone": "--",
    "street": "",
    "type": "actcenter",
    "location": "121.402625,31.213362",
    "township": "天山路街道"
  },
  {
    "name": "仙霞居委",
    "addr": "天山二村106号",
    "phone": "62590294--孙叶雄",
    "street": "",
    "type": "actcenter",
    "location": "121.402745,31.209895",
    "township": "天山路街道"
  },
  {
    "name": "",
    "addr": "古北路555弄1号201",
    "phone": "--",
    "street": "",
    "type": "actcenter",
    "location": "121.400856,31.208401",
    "township": "天山路街道"
  },
  {
    "name": "",
    "addr": "古北路555弄2号203",
    "phone": "--",
    "street": "",
    "type": "actcenter",
    "location": "121.401158,31.208199",
    "township": "天山路街道"
  },
  {
    "name": "遵义居委",
    "addr": "天山三村44号旁；",
    "phone": "62596675--陈颉琦",
    "street": "",
    "type": "actcenter",
    "location": "121.410159,31.214487",
    "township": "天山路街道"
  },
  {
    "name": "",
    "addr": "天山三村28号旁",
    "phone": "--",
    "street": "",
    "type": "actcenter",
    "location": "121.410037,31.213921",
    "township": "天山路街道"
  },
  {
    "name": "",
    "addr": "天山三村37号104室",
    "phone": "--",
    "street": "",
    "type": "actcenter",
    "location": "121.409900,31.214214",
    "township": "天山路街道"
  },
  {
    "name": "",
    "addr": "天山三村44号102室",
    "phone": "--",
    "street": "",
    "type": "actcenter",
    "location": "121.410159,31.214487",
    "township": "天山路街道"
  },
  {
    "name": "玉屏居委",
    "addr": "玉屏南路110弄43号",
    "phone": "17721199771--胡晓颖",
    "street": "",
    "type": "actcenter",
    "location": "121.410402,31.214200",
    "township": "天山路街道"
  },
  {
    "name": "",
    "addr": "玉屏南路88号新长宁慧生活",
    "phone": "--",
    "street": "",
    "type": "actcenter",
    "location": "121.411300,31.212671",
    "township": "天山路街道"
  },
  {
    "name": "中紫居委",
    "addr": "中山西路800弄53号104、105室",
    "phone": "13621856561--金蓉蓉",
    "street": "",
    "type": "actcenter",
    "location": "121.411013,31.207547",
    "township": "天山路街道"
  },
  {
    "name": "",
    "addr": "遵义路100号B2（创新）",
    "phone": "--",
    "street": "",
    "type": "actcenter",
    "location": "121.407427,31.207099",
    "township": "天山路街道"
  },
  {
    "name": "茅台居委",
    "addr": "娄山关路470弄9号103室",
    "phone": "62418442--卢靓",
    "street": "",
    "type": "actcenter",
    "location": "121.404690,31.208052",
    "township": "天山路街道"
  },
  {
    "name": "",
    "addr": "娄山关路500号7室（创新）",
    "phone": "--",
    "street": "",
    "type": "actcenter",
    "location": "121.403933,31.208429",
    "township": "天山路街道"
  },
  {
    "name": "天山三村居委",
    "addr": "玉屏南路340弄109号乙2楼",
    "phone": "62590257--毛世烨",
    "street": "",
    "type": "actcenter",
    "location": "121.408027,31.213368",
    "township": "天山路街道"
  },
  {
    "name": "",
    "addr": "玉平南路340弄106号乙",
    "phone": "--",
    "street": "",
    "type": "actcenter",
    "location": "121.407685,31.213958",
    "township": "天山路街道"
  },
  {
    "name": "天义居委会",
    "addr": "玉屏南路309弄5室",
    "phone": "52310023--杨红",
    "street": "",
    "type": "actcenter",
    "location": "121.409532,31.212619",
    "township": "天山路街道"
  },
  {
    "name": "",
    "addr": "玉屏南路345弄26号（创新）",
    "phone": "--",
    "street": "",
    "type": "actcenter",
    "location": "121.406156,31.212440",
    "township": "天山路街道"
  },
  {
    "name": "天山居委",
    "addr": "天山路938弄9号104室",
    "phone": "62290912--李娜",
    "street": "",
    "type": "actcenter",
    "location": "121.405289,31.211132",
    "township": "天山路街道"
  },
  {
    "name": "",
    "addr": "天山路938弄7号乙",
    "phone": "--",
    "street": "",
    "type": "actcenter",
    "location": "121.405380,31.210925",
    "township": "天山路街道"
  },
  {
    "name": "",
    "addr": "玉屏南路345弄26号（创新）",
    "phone": "--",
    "street": "",
    "type": "actcenter",
    "location": "121.406156,31.212440",
    "township": "天山路街道"
  },
  {
    "name": "紫云居委",
    "addr": "紫云路365号",
    "phone": "62590269--刘佳珺",
    "street": "",
    "type": "actcenter",
    "location": "121.409381,31.208407",
    "township": "天山路街道"
  },
  {
    "name": "",
    "addr": "遵义路100号B2（创新）南丰之家",
    "phone": "--",
    "street": "",
    "type": "actcenter",
    "location": "121.407427,31.207099",
    "township": "天山路街道"
  },
  {
    "name": "新光居委",
    "addr": "玉屏南路561弄3号103",
    "phone": "62298342--李逸",
    "street": "",
    "type": "actcenter",
    "location": "121.402260,31.214192",
    "township": "天山路街道"
  },
  {
    "name": "新风居委",
    "addr": "古北路181弄8号对面",
    "phone": "13761736064--倪燕萍",
    "street": "",
    "type": "actcenter",
    "location": "121.400650,31.214391",
    "township": "天山路街道"
  },
  {
    "name": "",
    "addr": "古北路177号",
    "phone": "--",
    "street": "",
    "type": "actcenter",
    "location": "121.399821,31.214664",
    "township": "天山路街道"
  },
  {
    "name": "虹梅居委",
    "addr": "虹许路971弄内",
    "phone": "22850988--解超",
    "street": "",
    "type": "actcenter",
    "location": "121.387512,31.195551",
    "township": "虹桥街道"
  },
  {
    "name": "",
    "addr": "虹梅路3918弄活动室",
    "phone": "--",
    "street": "",
    "type": "actcenter",
    "location": "121.393953,31.202270",
    "township": "仙霞新村街道"
  },
  {
    "name": "荣华居委",
    "addr": "荣华一期：水城南路51弄32号102室",
    "phone": "22850992--盛弘",
    "street": "",
    "type": "actcenter",
    "location": "121.392134,31.195464",
    "township": "虹桥街道"
  },
  {
    "name": "",
    "addr": "荣华二期：黄金城道258号D1",
    "phone": "--",
    "street": "",
    "type": "actcenter",
    "location": "121.408143,31.193809",
    "township": "虹桥街道"
  },
  {
    "name": "",
    "addr": "荣华三期：黄金城道688弄10号2楼",
    "phone": "--",
    "street": "",
    "type": "actcenter",
    "location": "121.400842,31.196237",
    "township": "虹桥街道"
  },
  {
    "name": "虹许居委",
    "addr": "宋园路65号4号楼",
    "phone": "22850986--赵慧敏",
    "street": "",
    "type": "actcenter",
    "location": "121.412551,31.192839",
    "township": "虹桥街道"
  },
  {
    "name": "",
    "addr": "黄金城道99弄48号地下室",
    "phone": "--",
    "street": "",
    "type": "actcenter",
    "location": "121.411116,31.191634",
    "township": "虹桥街道"
  },
  {
    "name": "虹南居委",
    "addr": "虹南居委会活动室 ：中山西路1432弄37号103室对面",
    "phone": "13671678475--沈怡",
    "street": "",
    "type": "actcenter",
    "location": "121.417456,31.191914",
    "township": "虹桥街道"
  },
  {
    "name": "",
    "addr": "三湘大厦湖南厅：虹桥路1243号1楼",
    "phone": "--",
    "street": "",
    "type": "actcenter",
    "location": "121.418230,31.194350",
    "township": "虹桥街道"
  },
  {
    "name": "虹欣居委",
    "addr": "中山西路1410弄22号",
    "phone": "22850975--骆晓萍",
    "street": "",
    "type": "actcenter",
    "location": "121.417433,31.192664",
    "township": "虹桥街道"
  },
  {
    "name": "",
    "addr": "干休所：宋园路46弄",
    "phone": "--",
    "street": "",
    "type": "actcenter",
    "location": "121.414138,31.193109",
    "township": "虹桥街道"
  },
  {
    "name": "中山居委",
    "addr": "虹桥路996弄34号1楼",
    "phone": "22850970--马俐",
    "street": "",
    "type": "actcenter",
    "location": "121.419660,31.194618",
    "township": "虹桥街道"
  },
  {
    "name": "",
    "addr": "三湘大厦湖南厅：虹桥路1243号1楼",
    "phone": "--",
    "street": "",
    "type": "actcenter",
    "location": "121.418230,31.194350",
    "township": "虹桥街道"
  },
  {
    "name": "长虹居委",
    "addr": "虹桥路996弄157号",
    "phone": "22850968--郜佳雯",
    "street": "",
    "type": "actcenter",
    "location": "121.420006,31.194173",
    "township": "虹桥街道"
  },
  {
    "name": "安东居委",
    "addr": "安顺路181弄1号",
    "phone": "22850961--胡晟莲",
    "street": "",
    "type": "actcenter",
    "location": "121.417413,31.200713",
    "township": "虹桥街道"
  },
  {
    "name": "何家角 居委",
    "addr": "安顺路231弄23号",
    "phone": "22850966--方郁欢",
    "street": "",
    "type": "actcenter",
    "location": "121.416551,31.200652",
    "township": "虹桥街道"
  },
  {
    "name": "",
    "addr": "虹桥体育公园活动室：长顺路58号",
    "phone": "--",
    "street": "",
    "type": "actcenter",
    "location": "121.418077,31.200381",
    "township": "虹桥街道"
  },
  {
    "name": "新顺居委",
    "addr": "新顺居委活动室：长顺路34-9-10号",
    "phone": "22850963--肖蓉",
    "street": "",
    "type": "actcenter",
    "location": "121.418041,31.198585",
    "township": "虹桥街道"
  },
  {
    "name": "长顺居委",
    "addr": "长顺活动室：长顺路2号甲",
    "phone": "22850964--汪文卿",
    "street": "",
    "type": "actcenter",
    "location": "121.417475,31.196772",
    "township": "虹桥街道"
  },
  {
    "name": "",
    "addr": "残联多功能室：虹桥路953弄77号",
    "phone": "--",
    "street": "",
    "type": "actcenter",
    "location": "121.419210,31.198720",
    "township": "虹桥街道"
  },
  {
    "name": "虹东居委",
    "addr": "活动室：中山西路1030弄10号",
    "phone": "13917519172--支颖",
    "street": "",
    "type": "actcenter",
    "location": "121.413094,31.198826",
    "township": "虹桥街道"
  },
  {
    "name": "",
    "addr": "综合为老服务中心：中山西路1030弄8号",
    "phone": "--",
    "street": "",
    "type": "actcenter",
    "location": "121.412985,31.198784",
    "township": "虹桥街道"
  },
  {
    "name": "爱建居委",
    "addr": "安顺路347号二楼",
    "phone": "13917105251--徐秀",
    "street": "",
    "type": "actcenter",
    "location": "121.410398,31.199996",
    "township": "虹桥街道"
  },
  {
    "name": "伊犁居委",
    "addr": "伊犁路134弄38号",
    "phone": "18930121180--聂林玲",
    "street": "",
    "type": "actcenter",
    "location": "121.408950,31.201142",
    "township": "虹桥街道"
  },
  {
    "name": "",
    "addr": "喜事助老：虹桥路1437号",
    "phone": "--",
    "street": "",
    "type": "actcenter",
    "location": "121.403207,31.199435",
    "township": "虹桥街道"
  },
  {
    "name": "虹储居委",
    "addr": "虹桥路1041弄63号",
    "phone": "17621758721--陶兰",
    "street": "",
    "type": "actcenter",
    "location": "121.411373,31.199572",
    "township": "虹桥街道"
  },
  {
    "name": "虹桥居委",
    "addr": "虹桥路1053弄弄口",
    "phone": "22850978--梅海",
    "street": "",
    "type": "actcenter",
    "location": "121.412759,31.197061",
    "township": "虹桥街道"
  },
  {
    "name": "大金更居委",
    "addr": "古北路530弄74号甲",
    "phone": "62339058--柴俊毅",
    "street": "",
    "type": "actcenter",
    "location": "121.399056,31.208253",
    "township": "仙霞新村街道"
  },
  {
    "name": "五三居委",
    "addr": "茅台路250弄-1",
    "phone": "62738061--蔡梅琳",
    "street": "",
    "type": "actcenter",
    "location": "121.399489,31.210098",
    "township": "仙霞新村街道"
  },
  {
    "name": "",
    "addr": "茅台路300弄9号",
    "phone": "--",
    "street": "",
    "type": "actcenter",
    "location": "121.397883,31.210532",
    "township": "仙霞新村街道"
  },
  {
    "name": "",
    "addr": "天山五村110号",
    "phone": "--",
    "street": "",
    "type": "actcenter",
    "location": "121.396985,31.210451",
    "township": "仙霞新村街道"
  },
  {
    "name": "五一居委",
    "addr": "天山五村665弄32号",
    "phone": "62598044--黄凯峰",
    "street": "",
    "type": "actcenter",
    "location": "121.397254,31.212417",
    "township": "仙霞新村街道"
  },
  {
    "name": "",
    "addr": "天山五村52甲1楼",
    "phone": "--",
    "street": "",
    "type": "actcenter",
    "location": "121.397502,31.211505",
    "township": "仙霞新村街道"
  },
  {
    "name": "天原二村居委",
    "addr": "天山路461弄18号-临",
    "phone": "13402052022--丁之倩",
    "street": "",
    "type": "actcenter",
    "location": "121.390272,31.212976",
    "township": "仙霞新村街道"
  },
  {
    "name": "杜一居委",
    "addr": "茅台路460弄28号甲",
    "phone": "62743386--陆菊敏",
    "street": "",
    "type": "actcenter",
    "location": "121.394943,31.210800",
    "township": "仙霞新村街道"
  },
  {
    "name": "茅台新苑居委",
    "addr": "茅台路455弄103室",
    "phone": "18018674409--陈荣进",
    "street": "",
    "type": "actcenter",
    "location": "121.394965,31.209448",
    "township": "仙霞新村街道"
  },
  {
    "name": "",
    "addr": "茅台路455弄104室",
    "phone": "--",
    "street": "",
    "type": "actcenter",
    "location": "121.394965,31.209448",
    "township": "仙霞新村街道"
  },
  {
    "name": "",
    "addr": "茅台路455弄106室",
    "phone": "--",
    "street": "",
    "type": "actcenter",
    "location": "121.394965,31.209448",
    "township": "仙霞新村街道"
  },
  {
    "name": "",
    "addr": "茅台路455弄107室",
    "phone": "--",
    "street": "",
    "type": "actcenter",
    "location": "121.394965,31.209448",
    "township": "仙霞新村街道"
  },
  {
    "name": "茅台花苑居委",
    "addr": "茅台路500弄14号",
    "phone": "62346080--赵昀",
    "street": "",
    "type": "actcenter",
    "location": "121.392759,31.210983",
    "township": "仙霞新村街道"
  },
  {
    "name": "水霞居委",
    "addr": "茅台路601弄36号",
    "phone": "62281904--姜薇",
    "street": "",
    "type": "actcenter",
    "location": "121.389049,31.208354",
    "township": "仙霞新村街道"
  },
  {
    "name": "",
    "addr": "茅台路601弄13号-3临",
    "phone": "--",
    "street": "",
    "type": "actcenter",
    "location": "121.388818,31.208937",
    "township": "仙霞新村街道"
  },
  {
    "name": "古宋居委",
    "addr": "茅台路600弄22号",
    "phone": "62903267--王娟娟",
    "street": "",
    "type": "actcenter",
    "location": "121.388174,31.211478",
    "township": "仙霞新村街道"
  },
  {
    "name": "安龙居委",
    "addr": "茅台路690弄41号临",
    "phone": "62900272--吴文兴",
    "street": "",
    "type": "actcenter",
    "location": "121.386042,31.211453",
    "township": "仙霞新村街道"
  },
  {
    "name": "威宁居委",
    "addr": "茅台路691弄17-2临",
    "phone": "62908543--陶国耀",
    "street": "",
    "type": "actcenter",
    "location": "121.386143,31.209411",
    "township": "仙霞新村街道"
  },
  {
    "name": "虹仙居委",
    "addr": "仙霞路750弄56号",
    "phone": "62623803--王赟",
    "street": "",
    "type": "actcenter",
    "location": "121.384559,31.204433",
    "township": "仙霞新村街道"
  },
  {
    "name": "",
    "addr": "仙霞路750弄11号",
    "phone": "--",
    "street": "",
    "type": "actcenter",
    "location": "121.385576,31.205575",
    "township": "仙霞新村街道"
  },
  {
    "name": "虹旭居委",
    "addr": "虹古路417-8临",
    "phone": "62623304--包璐玉",
    "street": "",
    "type": "actcenter",
    "location": "121.385885,31.203611",
    "township": "仙霞新村街道"
  },
  {
    "name": "",
    "addr": "虹古路377弄25号（仙霞社会组织服务中心）",
    "phone": "--",
    "street": "",
    "type": "actcenter",
    "location": "121.389613,31.202625",
    "township": "仙霞新村街道"
  },
  {
    "name": "虹霞居委",
    "addr": "虹古路410弄5号-4临",
    "phone": "62423664--王昊青",
    "street": "",
    "type": "actcenter",
    "location": "121.388563,31.204338",
    "township": "仙霞新村街道"
  },
  {
    "name": "",
    "addr": "虹桥路1885号（仙霞网球中心）",
    "phone": "--",
    "street": "",
    "type": "actcenter",
    "location": "121.387099,31.199643",
    "township": "仙霞新村街道"
  },
  {
    "name": "虹纺居委",
    "addr": "虹古路377弄26号",
    "phone": "62429637--王俊",
    "street": "",
    "type": "actcenter",
    "location": "121.388624,31.202512",
    "township": "仙霞新村街道"
  },
  {
    "name": "",
    "addr": "虹古路377弄31号",
    "phone": "--",
    "street": "",
    "type": "actcenter",
    "location": "121.389659,31.202406",
    "township": "仙霞新村街道"
  },
  {
    "name": "",
    "addr": "虹古路377弄25号（仙霞社会组织服务中心）",
    "phone": "--",
    "street": "",
    "type": "actcenter",
    "location": "121.389613,31.202625",
    "township": "仙霞新村街道"
  },
  {
    "name": "虹日居委",
    "addr": "水城路45弄21支弄86号",
    "phone": "13818782152--洪燕",
    "street": "",
    "type": "actcenter",
    "location": "121.390002,31.201936",
    "township": "仙霞新村街道"
  },
  {
    "name": "",
    "addr": "虹桥路1885号（仙霞网球中心）",
    "phone": "--",
    "street": "",
    "type": "actcenter",
    "location": "121.387099,31.199643",
    "township": "仙霞新村街道"
  },
  {
    "name": "锦苑居委",
    "addr": "虹桥路1829弄98号",
    "phone": "62627271--周珠瑛",
    "street": "",
    "type": "actcenter",
    "location": "121.389307,31.198717",
    "township": "仙霞新村街道"
  },
  {
    "name": "",
    "addr": "虹桥路1765弄43号",
    "phone": "--",
    "street": "",
    "type": "actcenter",
    "location": "121.389830,31.199936",
    "township": "仙霞新村街道"
  },
  {
    "name": "",
    "addr": "虹桥路1889弄98号",
    "phone": "--",
    "street": "",
    "type": "actcenter",
    "location": "121.387282,31.200184",
    "township": "仙霞新村街道"
  },
  {
    "name": "",
    "addr": "虹桥路1885号（仙霞网球中心）",
    "phone": "--",
    "street": "",
    "type": "actcenter",
    "location": "121.387099,31.199643",
    "township": "仙霞新村街道"
  },
  {
    "name": "虹古居委",
    "addr": "水城路40弄26号",
    "phone": "62598551--张云依",
    "street": "",
    "type": "actcenter",
    "location": "121.392002,31.202170",
    "township": "仙霞新村街道"
  },
  {
    "name": "",
    "addr": "虹桥路1885号（仙霞网球中心）",
    "phone": "--",
    "street": "",
    "type": "actcenter",
    "location": "121.387099,31.199643",
    "township": "仙霞新村街道"
  },
  {
    "name": "仙逸居委",
    "addr": "仙霞路451弄33号 （样板房）",
    "phone": "18917120258--杨家生",
    "street": "",
    "type": "actcenter",
    "location": "121.392098,31.206804",
    "township": "仙霞新村街道"
  },
  {
    "name": "仙霞路第二居委",
    "addr": "仙霞路472-4临",
    "phone": "62089269--张宗",
    "street": "",
    "type": "actcenter",
    "location": "121.392546,31.205166",
    "township": "仙霞新村街道"
  },
  {
    "name": "",
    "addr": "虹桥路1885号（仙霞网球中心）",
    "phone": "--",
    "street": "",
    "type": "actcenter",
    "location": "121.387099,31.199643",
    "township": "仙霞新村街道"
  },
  {
    "name": "虹景居委",
    "addr": "虹古路208弄5-6号",
    "phone": "62709569--陆佳颖",
    "street": "",
    "type": "actcenter",
    "location": "121.393595,31.204020",
    "township": "仙霞新村街道"
  },
  {
    "name": "",
    "addr": "虹古路208弄22号-1临",
    "phone": "--",
    "street": "",
    "type": "actcenter",
    "location": "121.393126,31.203997",
    "township": "仙霞新村街道"
  },
  {
    "name": "",
    "addr": "虹桥路1885号（仙霞网球中心）",
    "phone": "--",
    "street": "",
    "type": "actcenter",
    "location": "121.387099,31.199643",
    "township": "仙霞新村街道"
  },
  {
    "name": "芙蓉江路第一居委",
    "addr": "芙蓉江路103弄34号",
    "phone": "62738172--陈丽",
    "street": "",
    "type": "actcenter",
    "location": "121.396370,31.208510",
    "township": "仙霞新村街道"
  },
  {
    "name": "芙蓉江路第二居委",
    "addr": "芙蓉江路150弄22号",
    "phone": "62592091--罗霄伶",
    "street": "",
    "type": "actcenter",
    "location": "121.393954,31.207988",
    "township": "仙霞新村街道"
  },
  {
    "name": "虹桥机场新村居委",
    "addr": "虹桥机场新村97号小区活动中心",
    "phone": "22300095--顾美玲",
    "street": "",
    "type": "actcenter",
    "location": "121.795511,31.172750",
    "township": "祝桥镇"
  },
  {
    "name": "上航新村居委",
    "addr": "上航新村337号101室",
    "phone": "22300097--汪冬玲",
    "street": "",
    "type": "actcenter",
    "location": "121.356232,31.184311",
    "township": "程家桥街道"
  },
  {
    "name": "",
    "addr": "龙柏花苑（虹桥路2419号）物业办公室",
    "phone": "--",
    "street": "",
    "type": "actcenter",
    "location": "121.359926,31.190112",
    "township": "程家桥街道"
  },
  {
    "name": "嘉利豪园居委",
    "addr": "虹井路888弄14号裙楼",
    "phone": "62683269--黄瑛",
    "street": "",
    "type": "actcenter",
    "location": "121.368809,31.188136",
    "township": "程家桥街道"
  },
  {
    "name": "王满泗桥居委",
    "addr": "哈密路1800弄23号1楼",
    "phone": "22300093--应红娣",
    "street": "",
    "type": "actcenter",
    "location": "121.370935,31.195807",
    "township": "新泾镇"
  },
  {
    "name": "",
    "addr": "哈密路1999弄7号底层",
    "phone": "--",
    "street": "",
    "type": "actcenter",
    "location": "121.368769,31.193509",
    "township": "程家桥街道"
  },
  {
    "name": "程桥一村居委",
    "addr": "哈密路程桥一村9号101室",
    "phone": "22300091--林竞",
    "street": "",
    "type": "actcenter",
    "location": "121.370990,31.191281",
    "township": "程家桥街道"
  },
  {
    "name": "",
    "addr": "虹桥路2293号干休所",
    "phone": "--",
    "street": "",
    "type": "actcenter",
    "location": "121.372167,31.190939",
    "township": "程家桥街道"
  },
  {
    "name": "宝北居委",
    "addr": "程家桥路80弄5号居民活动室",
    "phone": "22300094--顾路萍",
    "street": "",
    "type": "actcenter",
    "location": "121.372020,31.188756",
    "township": "程家桥街道"
  },
  {
    "name": "",
    "addr": "程家桥路80弄52号",
    "phone": "--",
    "street": "",
    "type": "actcenter",
    "location": "121.370549,31.188908",
    "township": "程家桥街道"
  },
  {
    "name": "*程桥二村居委",
    "addr": "程桥二村10号",
    "phone": "22300092--董军萍",
    "street": "",
    "type": "actcenter",
    "location": "121.374019,31.189342",
    "township": "程家桥街道"
  },
  {
    "name": "南龚居委",
    "addr": "虹桥路2222弄22号",
    "phone": "22300046--龚培华",
    "street": "",
    "type": "actcenter",
    "location": "121.379614,31.191574",
    "township": "程家桥街道"
  },
  {
    "name": "",
    "addr": "虹桥路2222弄49号",
    "phone": "--",
    "street": "",
    "type": "actcenter",
    "location": "121.381511,31.192321",
    "township": "程家桥街道"
  },
  {
    "name": "元丰花园居委会",
    "addr": "天山路88弄13号102室",
    "phone": "13817690933--叶侃琳",
    "street": "",
    "type": "actcenter",
    "location": "121.379913,31.217202",
    "township": "北新泾街道"
  },
  {
    "name": "",
    "addr": "天山路88弄23号101室",
    "phone": "--",
    "street": "",
    "type": "actcenter",
    "location": "121.379798,31.217710",
    "township": "北新泾街道"
  },
  {
    "name": "北新泾哈密居委会",
    "addr": "长宁路3229弄活动室",
    "phone": "62330150--张宏伟",
    "street": "",
    "type": "actcenter",
    "location": "121.397150,31.211750",
    "township": "仙霞新村街道"
  },
  {
    "name": "",
    "addr": "天山路88弄23号101室",
    "phone": "--",
    "street": "",
    "type": "actcenter",
    "location": "121.379798,31.217710",
    "township": "北新泾街道"
  },
  {
    "name": "蒲松北路居委会",
    "addr": "北渔路28弄9号201室",
    "phone": "18117017308--王怡",
    "street": "",
    "type": "actcenter",
    "location": "121.373036,31.218117",
    "township": "北新泾街道"
  },
  {
    "name": "",
    "addr": "天山西路80弄5号对门",
    "phone": "--",
    "street": "",
    "type": "actcenter",
    "location": "121.373907,31.217001",
    "township": "北新泾街道"
  },
  {
    "name": "新泾二村居委",
    "addr": "新泾二村41号甲",
    "phone": "52188441--吴晓俊",
    "street": "",
    "type": "actcenter",
    "location": "121.373114,31.215703",
    "township": "北新泾街道"
  },
  {
    "name": "新泾一村一居委",
    "addr": "新泾一村203号对面",
    "phone": "52184347--瞿一舟",
    "street": "",
    "type": "actcenter",
    "location": "121.371211,31.218716",
    "township": "北新泾街道"
  },
  {
    "name": "",
    "addr": "天山路88弄23号101室",
    "phone": "--",
    "street": "",
    "type": "actcenter",
    "location": "121.379798,31.217710",
    "township": "北新泾街道"
  },
  {
    "name": "新泾一村第二居委",
    "addr": "剑河路254号1/3楼",
    "phone": "52187538--江平",
    "street": "",
    "type": "actcenter",
    "location": "121.368606,31.218433",
    "township": "北新泾街道"
  },
  {
    "name": "",
    "addr": "天山路88弄23号101室",
    "phone": "--",
    "street": "",
    "type": "actcenter",
    "location": "121.379798,31.217710",
    "township": "北新泾街道"
  },
  {
    "name": "新泾四村居委",
    "addr": "天山西路351弄2号1楼",
    "phone": "62396806--吴郁梦",
    "street": "",
    "type": "actcenter",
    "location": "121.366427,31.217119",
    "township": "北新泾街道"
  },
  {
    "name": "新泾三村居委",
    "addr": "新泾三村100号",
    "phone": "52195264--周婷",
    "street": "",
    "type": "actcenter",
    "location": "121.370467,31.215870",
    "township": "北新泾街道"
  },
  {
    "name": "",
    "addr": "新泾三村132号104室",
    "phone": "--",
    "street": "",
    "type": "actcenter",
    "location": "121.369856,31.217024",
    "township": "北新泾街道"
  },
  {
    "name": "新泾五村居委",
    "addr": "天山西路350弄55号101",
    "phone": "13122918913--汤炎",
    "street": "",
    "type": "actcenter",
    "location": "121.366505,31.219140",
    "township": "北新泾街道"
  },
  {
    "name": "",
    "addr": "西陶浜路33弄4号",
    "phone": "--",
    "street": "",
    "type": "actcenter",
    "location": "121.362597,31.221787",
    "township": "北新泾街道"
  },
  {
    "name": "新泾七村居委",
    "addr": "金钟路333弄68号",
    "phone": "13917132217--李艳玲",
    "street": "",
    "type": "actcenter",
    "location": "121.362133,31.219557",
    "township": "北新泾街道"
  },
  {
    "name": "",
    "addr": "天山西路450弄74号101室",
    "phone": "--",
    "street": "",
    "type": "actcenter",
    "location": "121.364216,31.218726",
    "township": "北新泾街道"
  },
  {
    "name": "新泾八村居委",
    "addr": "新渔路400弄18号",
    "phone": "52600724--严敏洁",
    "street": "",
    "type": "actcenter",
    "location": "121.364276,31.216341",
    "township": "北新泾街道"
  },
  {
    "name": "北翟居委会",
    "addr": "金钟路428弄18号",
    "phone": "52181255--崔顺颖",
    "street": "",
    "type": "actcenter",
    "location": "121.364168,31.220681",
    "township": "北新泾街道"
  },
  {
    "name": "",
    "addr": "西陶浜路33弄4号",
    "phone": "--",
    "street": "",
    "type": "actcenter",
    "location": "121.362597,31.221787",
    "township": "北新泾街道"
  },
  {
    "name": "金平居委",
    "addr": "淞虹路128弄8号后",
    "phone": "52161940--邵静",
    "street": "",
    "type": "actcenter",
    "location": "121.361554,31.222453",
    "township": "北新泾街道"
  },
  {
    "name": "",
    "addr": "西陶浜路33弄4号",
    "phone": "--",
    "street": "",
    "type": "actcenter",
    "location": "121.362597,31.221787",
    "township": "北新泾街道"
  },
  {
    "name": "新泾六村（样板房）",
    "addr": "金钟路340弄13号",
    "phone": "18621823087--朱婉婷",
    "street": "",
    "type": "actcenter",
    "location": "121.367040,31.220829",
    "township": "北新泾街道"
  },
  {
    "name": "",
    "addr": "西陶浜路33弄4号",
    "phone": "--",
    "street": "",
    "type": "actcenter",
    "location": "121.362597,31.221787",
    "township": "北新泾街道"
  },
  {
    "name": "剑河家苑居委会",
    "addr": "金钟路68弄7号",
    "phone": "62415675--张婵珏",
    "street": "",
    "type": "actcenter",
    "location": "121.369998,31.220469",
    "township": "北新泾街道"
  },
  {
    "name": "怡景苑居委",
    "addr": "威宁路511弄20号",
    "phone": "32511655--褚昕澜",
    "street": "",
    "type": "actcenter",
    "location": "121.384149,31.217517",
    "township": "新泾镇"
  },
  {
    "name": "双流居委",
    "addr": "双流路340号",
    "phone": "62913074--王峰",
    "street": "",
    "type": "actcenter",
    "location": "121.381123,31.218068",
    "township": "新泾镇"
  },
  {
    "name": "",
    "addr": "天山路198弄2号",
    "phone": "--",
    "street": "",
    "type": "actcenter",
    "location": "121.381584,31.216325",
    "township": "新泾镇"
  },
  {
    "name": "新渔东路居委",
    "addr": "新渔东路550弄4号101、103室",
    "phone": "62901927--赵婷",
    "street": "",
    "type": "actcenter",
    "location": "121.383429,31.212665",
    "township": "新泾镇"
  },
  {
    "name": "北虹居委",
    "addr": "北虹路1000弄17号",
    "phone": "62907097--谢慧莲",
    "street": "",
    "type": "actcenter",
    "location": "121.377990,31.213606",
    "township": "新泾镇"
  },
  {
    "name": "",
    "addr": "哈密路398弄31号101室",
    "phone": "--",
    "street": "",
    "type": "actcenter",
    "location": "121.375959,31.211744",
    "township": "新泾镇"
  },
  {
    "name": "南洋新都居委",
    "addr": "天山路177弄8号",
    "phone": "62915426--李莉",
    "street": "",
    "type": "actcenter",
    "location": "121.382379,31.214714",
    "township": "新泾镇"
  },
  {
    "name": "",
    "addr": "双流路54弄4号102室",
    "phone": "--",
    "street": "",
    "type": "actcenter",
    "location": "121.380788,31.212135",
    "township": "新泾镇"
  },
  {
    "name": "天山星城居委",
    "addr": "威宁路358弄3号101室",
    "phone": "18621753381--蔡春芳",
    "street": "",
    "type": "actcenter",
    "location": "121.386917,31.212978",
    "township": "新泾镇"
  },
  {
    "name": "",
    "addr": "威宁路358弄7号楼对面“星城之家”地下活动室",
    "phone": "--",
    "street": "",
    "type": "actcenter",
    "location": "121.385304,31.212693",
    "township": "新泾镇"
  },
  {
    "name": "新泾居委",
    "addr": "仙霞西路885弄76号",
    "phone": "32526001--卞俊霞",
    "street": "",
    "type": "actcenter",
    "location": "121.350753,31.207281",
    "township": "新泾镇"
  },
  {
    "name": "新泾北苑居委",
    "addr": "仙霞西路888弄16号1楼（装修）（样板房）",
    "phone": "62396776--万燕俊",
    "street": "",
    "type": "actcenter",
    "location": "121.350538,31.210376",
    "township": "新泾镇"
  },
  {
    "name": "定威居委",
    "addr": "协和路699弄37号",
    "phone": "52182567--李莉",
    "street": "",
    "type": "actcenter",
    "location": "121.355030,31.216091",
    "township": "新泾镇"
  },
  {
    "name": "",
    "addr": "广顺路32弄40号",
    "phone": "--",
    "street": "",
    "type": "actcenter",
    "location": "121.352647,31.215632",
    "township": "新泾镇"
  },
  {
    "name": "刘家宅第一居委",
    "addr": "居委活动室：剑河路419弄9号对面",
    "phone": "52170899--浦懿舫",
    "street": "",
    "type": "actcenter",
    "location": "121.366870,31.214457",
    "township": "新泾镇"
  },
  {
    "name": "",
    "addr": "剑河路180弄29号对面",
    "phone": "--",
    "street": "",
    "type": "actcenter",
    "location": "121.365743,31.214177",
    "township": "新泾镇"
  },
  {
    "name": "",
    "addr": "仙霞西路88号5楼百联活动中心",
    "phone": "--",
    "street": "",
    "type": "actcenter",
    "location": "121.369323,31.208886",
    "township": "新泾镇"
  },
  {
    "name": "刘家宅小区 第二居委",
    "addr": "剑河路404弄11号（临）",
    "phone": "52177052--徐莉",
    "street": "",
    "type": "actcenter",
    "location": "121.368144,31.215081",
    "township": "新泾镇"
  },
  {
    "name": "",
    "addr": "北渔路115弄37号103室",
    "phone": "--",
    "street": "",
    "type": "actcenter",
    "location": "121.370945,31.214201",
    "township": "新泾镇"
  },
  {
    "name": "",
    "addr": " 北渔路135弄2号（临）",
    "phone": "--",
    "street": "",
    "type": "actcenter",
    "location": "121.370446,31.213014",
    "township": "新泾镇"
  },
  {
    "name": "",
    "addr": "仙霞西路88号5楼百联活动中心",
    "phone": "--",
    "street": "",
    "type": "actcenter",
    "location": "121.369323,31.208886",
    "township": "新泾镇"
  },
  {
    "name": "刘家宅第四居委",
    "addr": "泉口路185弄113号",
    "phone": "52173584--刘丰",
    "street": "",
    "type": "actcenter",
    "location": "121.366384,31.211916",
    "township": "新泾镇"
  },
  {
    "name": "刘家宅小区 第三居委",
    "addr": "泉口路109弄98号",
    "phone": "52179748--钟咏",
    "street": "",
    "type": "actcenter",
    "location": "121.370783,31.211286",
    "township": "新泾镇"
  },
  {
    "name": "林泉路居委",
    "addr": "仙霞路1225弄59号",
    "phone": "62905527--陈丽娜",
    "street": "",
    "type": "actcenter",
    "location": "121.373789,31.210268",
    "township": "新泾镇"
  },
  {
    "name": "淮阴路居委",
    "addr": "淮阴路575弄4号（装修）",
    "phone": "13918401370--张沪一",
    "street": "",
    "type": "actcenter",
    "location": "121.371784,31.205136",
    "township": "新泾镇"
  },
  {
    "name": "曙光居委",
    "addr": "仙霞路888弄10号甲一楼",
    "phone": "62425123--顾颖婧",
    "street": "",
    "type": "actcenter",
    "location": "121.381637,31.207164",
    "township": "新泾镇"
  },
  {
    "name": "",
    "addr": "仙霞路1088弄15号-2临",
    "phone": "--",
    "street": "",
    "type": "actcenter",
    "location": "121.377734,31.207069",
    "township": "新泾镇"
  },
  {
    "name": "",
    "addr": "青溪路601弄52号2楼",
    "phone": "--",
    "street": "",
    "type": "actcenter",
    "location": "121.375391,31.204317",
    "township": "新泾镇"
  },
  {
    "name": "虹九居委",
    "addr": "平塘路415弄83临",
    "phone": "13651854964--顾长彧",
    "street": "",
    "type": "actcenter",
    "location": "121.363520,31.214689",
    "township": "新泾镇"
  },
  {
    "name": "",
    "addr": "平塘路415弄73临",
    "phone": "--",
    "street": "",
    "type": "actcenter",
    "location": "121.363520,31.214689",
    "township": "新泾镇"
  },
  {
    "name": "平塘居委",
    "addr": "平塘路456弄1号",
    "phone": "52205656--朱瑶",
    "street": "",
    "type": "actcenter",
    "location": "121.364747,31.212176",
    "township": "新泾镇"
  },
  {
    "name": "",
    "addr": "淞虹路650弄56号2楼",
    "phone": "--",
    "street": "",
    "type": "actcenter",
    "location": "121.362075,31.212104",
    "township": "新泾镇"
  },
  {
    "name": "虹康居委",
    "addr": "仙霞西路500弄53号底楼",
    "phone": "52207110--王玥",
    "street": "",
    "type": "actcenter",
    "location": "121.363175,31.210547",
    "township": "新泾镇"
  },
  {
    "name": "",
    "addr": "仙霞西路500弄50号底楼",
    "phone": "--",
    "street": "",
    "type": "actcenter",
    "location": "121.364664,31.209858",
    "township": "新泾镇"
  },
  {
    "name": "",
    "addr": "仙霞西路500弄52号底楼",
    "phone": "--",
    "street": "",
    "type": "actcenter",
    "location": "121.364282,31.210400",
    "township": "新泾镇"
  },
  {
    "name": "淞虹小区 第三居委",
    "addr": "平塘路700弄43号",
    "phone": "52171800--姚鹏飞",
    "street": "",
    "type": "actcenter",
    "location": "121.366353,31.207118",
    "township": "新泾镇"
  },
  {
    "name": "",
    "addr": "淞虹路800弄活动室",
    "phone": "--",
    "street": "",
    "type": "actcenter",
    "location": "121.364049,31.207053",
    "township": "新泾镇"
  },
  {
    "name": "",
    "addr": "淞虹路805弄29-1临",
    "phone": "--",
    "street": "",
    "type": "actcenter",
    "location": "121.362575,31.206647",
    "township": "新泾镇"
  },
  {
    "name": "",
    "addr": "淞虹路855弄18号",
    "phone": "--",
    "street": "",
    "type": "actcenter",
    "location": "121.362699,31.206168",
    "township": "新泾镇"
  },
  {
    "name": "淞虹小区 第二居委",
    "addr": "剑河路599弄99号-1临和-3临",
    "phone": "15000773801--戴亦",
    "street": "",
    "type": "actcenter",
    "location": "121.368762,31.206474",
    "township": "新泾镇"
  },
  {
    "name": "",
    "addr": "仙霞西路88号5楼百联活动中心（创新）",
    "phone": "--",
    "street": "",
    "type": "actcenter",
    "location": "121.369323,31.208886",
    "township": "新泾镇"
  },
  {
    "name": "程桥居委",
    "addr": "剑河路2001弄39号",
    "phone": "13918767117--顾莉娅",
    "street": "",
    "type": "actcenter",
    "location": "121.370343,31.194615",
    "township": "程家桥街道"
  },
  {
    "name": "屈家桥居委",
    "addr": "北翟路980弄89号",
    "phone": "18516521031--赵怡",
    "street": "",
    "type": "actcenter",
    "location": "121.359387,31.224933",
    "township": "新泾镇"
  },
  {
    "name": "绿一居委",
    "addr": "淞虹路685弄108号",
    "phone": "13816094927--高璐璐",
    "street": "",
    "type": "actcenter",
    "location": "121.359601,31.214104",
    "township": "新泾镇"
  },
  {
    "name": "淞虹小区第四居委",
    "addr": "淞虹路715弄18号-1临",
    "phone": "52170964--钱秋瑾",
    "street": "",
    "type": "actcenter",
    "location": "121.361377,31.210659",
    "township": "新泾镇"
  },
  {
    "name": "",
    "addr": "淞虹路715弄18号-1临",
    "phone": "--",
    "street": "",
    "type": "actcenter",
    "location": "121.361377,31.210659",
    "township": "新泾镇"
  },
  {
    "name": "",
    "addr": "淞虹路715弄18号-1临",
    "phone": "--",
    "street": "",
    "type": "actcenter",
    "location": "121.361377,31.210659",
    "township": "新泾镇"
  },
  {
    "name": "",
    "addr": "淞虹路715弄6号-6临",
    "phone": "--",
    "street": "",
    "type": "actcenter",
    "location": "121.361088,31.210692",
    "township": "新泾镇"
  },
  {
    "name": "绿园新村第五居委",
    "addr": "淞虹路1005弄59号东侧一楼",
    "phone": "52202453--蒋晓燕",
    "street": "",
    "type": "actcenter",
    "location": "121.363082,31.203467",
    "township": "新泾镇"
  },
  {
    "name": "",
    "addr": "淞虹路1005弄59号东侧二楼",
    "phone": "--",
    "street": "",
    "type": "actcenter",
    "location": "121.363082,31.203467",
    "township": "新泾镇"
  },
  {
    "name": "",
    "addr": "淞虹路1005弄59号东侧三楼",
    "phone": "--",
    "street": "",
    "type": "actcenter",
    "location": "121.363082,31.203467",
    "township": "新泾镇"
  },
  {
    "name": "中泾居委",
    "addr": "中泾路18弄77号",
    "phone": "52186196--沈惠根",
    "street": "",
    "type": "actcenter",
    "location": "121.362876,31.201730",
    "township": "新泾镇"
  },
  {
    "name": "福泉居委",
    "addr": "福泉路120弄10号",
    "phone": "62386910--唐爱萍",
    "street": "",
    "type": "actcenter",
    "location": "121.359428,31.215682",
    "township": "新泾镇"
  },
  {
    "name": "",
    "addr": "福泉路120弄27号-1临",
    "phone": "--",
    "street": "",
    "type": "actcenter",
    "location": "121.358681,31.215921",
    "township": "新泾镇"
  },
  {
    "name": "",
    "addr": "福泉路123弄14号会议室",
    "phone": "--",
    "street": "",
    "type": "actcenter",
    "location": "121.358091,31.215091",
    "township": "新泾镇"
  },
  {
    "name": "绿八居委",
    "addr": "协和路239弄24号2楼",
    "phone": "52209133--赵俊杰",
    "street": "",
    "type": "actcenter",
    "location": "121.355211,31.212448",
    "township": "新泾镇"
  },
  {
    "name": "华松居委",
    "addr": "仙霞西路700弄72号",
    "phone": "13564219945--刘祺",
    "street": "",
    "type": "actcenter",
    "location": "121.357275,31.210658",
    "township": "新泾镇"
  },
  {
    "name": "淞虹小区第五居委",
    "addr": "福泉路385弄56号",
    "phone": "52203976--谢诤维",
    "street": "",
    "type": "actcenter",
    "location": "121.358729,31.208080",
    "township": "新泾镇"
  },
  {
    "name": "绿园新村 第十一居委",
    "addr": "福泉路435弄127号居委对面",
    "phone": "52201421--裴芬",
    "street": "",
    "type": "actcenter",
    "location": "121.359349,31.204393",
    "township": "新泾镇"
  },
  {
    "name": "绿十二居委",
    "addr": "福泉路495弄11号101室 102室",
    "phone": "52201167--孙晨旭",
    "street": "",
    "type": "actcenter",
    "location": "121.359185,31.202981",
    "township": "新泾镇"
  }
]
